"latitude","longitude","state","county"
34.215714,-82.446307,"SC","Abbeville"
30.344615,-92.345888,"LA","Acadia"
37.712919,-75.661132,"VA","Accomack"
43.735179,-116.41033,"ID","Ada"
41.439109,-94.633805,"IA","Adair"
36.955287,-85.403561,"KY","Adair"
40.165717,-92.609514,"MO","Adair"
35.900019,-94.640218,"OK","Adair"
39.788286,-104.822765,"CO","Adams"
41.048733,-94.823088,"IA","Adams"
44.853452,-116.548601,"ID","Adams"
39.952413,-91.200676,"IL","Adams"
40.671628,-84.934331,"IN","Adams"
31.527752,-91.307025,"MS","Adams"
46.057786,-102.785054,"ND","Adams"
40.582425,-98.389035,"NE","Adams"
38.749779,-83.612574,"OH","Adams"
39.896923,-76.994725,"PA","Adams"
46.859127,-118.161058,"WA","Adams"
43.892066,-89.827509,"WI","Adams"
44.157814,-73.071813,"VT","Addison"
33.605723,-81.365813,"SC","Aiken"
46.671645,-93.432392,"MN","Aitkin"
29.68041,-82.345739,"FL","Alachua"
36.031836,-79.485643,"NC","Alamance"
37.770563,-122.264779,"CA","Alameda"
37.479933,-105.790967,"CO","Alamosa"
42.482455,-73.936671,"NY","Albany"
41.464065,-105.676771,"WY","Albany"
38.093604,-78.561139,"VA","Albemarle"
44.678354,-83.599977,"MI","Alcona"
34.87589,-88.591575,"MS","Alcorn"
37.152775,-89.325581,"IL","Alexander"
35.938931,-81.149233,"NC","Alexander"
38.823062,-77.079622,"VA","Alexandria City"
36.51176,-98.449895,"OK","Alfalfa"
46.444586,-86.911506,"MI","Alger"
43.43073,-91.509087,"IA","Allamakee"
42.539295,-85.894873,"MI","Allegan"
39.580691,-78.690593,"MD","Allegany"
42.474283,-78.247413,"NY","Allegany"
36.520689,-80.983323,"NC","Alleghany"
37.796454,-79.785987,"VA","Alleghany"
40.493128,-79.903121,"PA","Allegheny"
41.103797,-85.292474,"IN","Allen"
37.838456,-95.215073,"KS","Allen"
36.67931,-86.17603,"KY","Allen"
30.818176,-92.758262,"LA","Allen"
40.772147,-84.0471,"OH","Allen"
32.990158,-81.287561,"SC","Allendale"
45.033143,-83.495091,"MI","Alpena"
38.575433,-120.285021,"CA","Alpine"
38.418568,-120.831845,"CA","Amador"
37.342768,-77.984092,"VA","Amelia"
37.59162,-79.108441,"VA","Amherst"
31.247847,-90.885075,"MS","Amite"
38.213685,-95.299014,"KS","Anderson"
38.006484,-84.979923,"KY","Anderson"
34.492718,-82.638297,"SC","Anderson"
36.202528,-84.068808,"TN","Anderson"
31.992987,-95.499133,"TX","Anderson"
39.908392,-94.923508,"MO","Andrew"
32.370377,-102.523255,"TX","Andrews"
44.087422,-70.243848,"ME","Androscoggin"
31.276467,-94.508447,"TX","Angelina"
38.802263,-76.645735,"MD","Anne Arundel"
45.388716,-93.231538,"MN","Anoka"
35.021874,-80.085232,"NC","Anson"
41.982761,-98.083714,"NE","Antelope"
44.983262,-84.961776,"MI","Antrim"
34.177052,-109.240647,"AZ","Apache"
40.686447,-92.881614,"IA","Appanoose"
31.756861,-82.350837,"GA","Appling"
37.377196,-78.80648,"VA","Appomattox"
28.058922,-97.052415,"TX","Aransas"
39.715287,-104.84748,"CO","Arapahoe"
33.556215,-98.624934,"TX","Archer"
37.109225,-107.31183,"CO","Archuleta"
43.979427,-83.900702,"MI","Arenac"
34.38443,-91.392364,"AR","Arkansas"
38.885484,-77.099113,"VA","Arlington"
40.847829,-79.451575,"PA","Armstrong"
35.133039,-101.460835,"TX","Armstrong"
46.516166,-68.886826,"ME","Aroostook"
41.554073,-101.714495,"NE","Arthur"
30.159584,-90.967424,"LA","Ascension"
36.464673,-81.596886,"NC","Ashe"
40.826965,-82.296131,"OH","Ashland"
46.394779,-90.628174,"WI","Ashland"
33.180855,-91.806256,"AR","Ashley"
41.740136,-80.602278,"OH","Ashtabula"
46.121593,-117.17858,"WA","Asotin"
29.947562,-91.188549,"LA","Assumption"
28.788589,-98.139626,"TX","Atascosa"
39.535948,-95.225098,"KS","Atchison"
40.347147,-95.390747,"MO","Atchison"
39.339279,-82.013803,"OH","Athens"
31.303159,-82.847997,"GA","Atkinson"
39.563616,-74.711081,"NJ","Atlantic"
34.358254,-96.0825,"OK","Atoka"
33.08167,-89.541348,"MS","Attala"
39.270895,-91.557429,"MO","Audrain"
41.704535,-94.918652,"IA","Audubon"
40.589876,-84.12786,"OH","Auglaize"
38.325455,-79.094228,"VA","Augusta"
43.746753,-98.518533,"SD","Aurora"
29.864772,-96.321766,"TX","Austin"
32.450328,-86.721712,"AL","Autauga"
36.072025,-81.910144,"NC","Avery"
31.091942,-91.906093,"LA","Avoyelles"
37.184434,-102.473938,"CO","Baca"
31.576952,-82.461197,"GA","Bacon"
33.929317,-102.688297,"TX","Bailey"
30.302616,-82.190828,"FL","Baker"
31.37168,-84.338325,"GA","Baker"
44.754237,-117.742659,"OR","Baker"
30.763492,-87.756371,"AL","Baldwin"
33.022658,-83.246975,"GA","Baldwin"
37.148007,-88.948562,"KY","Ballard"
39.496406,-76.486624,"MD","Baltimore"
39.296536,-76.623489,"MD","Baltimore City"
33.206294,-80.973559,"SC","Bamberg"
29.724328,-99.104014,"TX","Bandera"
34.393713,-83.473886,"GA","Banks"
41.546441,-103.710045,"NE","Banner"
42.770177,-112.259807,"ID","Bannock"
46.80476,-88.575842,"MI","Baraga"
37.076952,-98.751916,"KS","Barber"
31.805322,-85.421299,"AL","Barbour"
39.125078,-80.017982,"WV","Barbour"
46.775099,-97.797553,"ND","Barnes"
41.745505,-70.590471,"MA","Barnstable"
33.249806,-81.349595,"SC","Barnwell"
36.815869,-85.992039,"KY","Barren"
45.405423,-91.828102,"WI","Barron"
34.019109,-83.826094,"GA","Barrow"
42.697951,-85.133685,"MI","Barry"
36.761726,-94.054723,"MO","Barry"
39.191447,-85.891338,"IN","Bartholomew"
38.420451,-98.913448,"KS","Barton"
37.417327,-94.144032,"MO","Barton"
34.296339,-84.909216,"GA","Bartow"
30.140905,-97.313592,"TX","Bastrop"
38.397029,-94.380375,"MO","Bates"
38.084908,-83.700824,"KY","Bath"
38.055311,-79.746367,"VA","Bath"
36.42957,-92.325688,"AR","Baxter"
30.1922,-85.663027,"FL","Bay"
43.639444,-84.059141,"MI","Bay"
46.853517,-90.915934,"WI","Bayfield"
33.620131,-99.263681,"TX","Baylor"
44.325314,-98.013968,"SD","Beadle"
42.295466,-111.373414,"ID","Bear Lake"
35.373666,-76.861978,"NC","Beaufort"
32.424353,-80.565343,"SC","Beaufort"
30.651656,-93.299574,"LA","Beauregard"
36.750783,-100.478393,"OK","Beaver"
40.675225,-80.304178,"PA","Beaver"
38.315334,-112.798228,"UT","Beaver"
45.149805,-112.70073,"MT","Beaverhead"
46.834262,-95.746871,"MN","Becker"
35.26946,-99.680146,"OK","Beckham"
40.198627,-78.622801,"PA","Bedford"
35.580793,-86.399852,"TN","Bedford"
37.21229,-79.742886,"VA","Bedford"
37.336027,-79.522585,"VA","Bedford City"
28.488192,-97.730956,"TX","Bee"
43.417369,-71.373189,"NH","Belknap"
36.714629,-83.64046,"KY","Bell"
31.068306,-97.3047,"TX","Bell"
39.985318,-81.137495,"OH","Belmont"
47.571964,-94.801272,"MN","Beltrami"
31.748753,-83.235412,"GA","Ben Hill"
47.146411,-116.915483,"ID","Benewah"
43.172158,-101.734068,"SD","Bennett"
43.09893,-73.034944,"VT","Bennington"
48.28641,-99.404705,"ND","Benson"
37.955547,-103.072469,"CO","Bent"
36.397805,-94.043837,"AR","Benton"
42.057516,-92.058526,"IA","Benton"
40.527877,-87.499343,"IN","Benton"
45.691931,-93.914797,"MN","Benton"
38.337832,-93.314592,"MO","Benton"
34.741457,-89.163282,"MS","Benton"
44.377113,-123.588271,"OR","Benton"
36.246599,-88.046704,"TN","Benton"
46.24204,-119.483517,"WA","Benton"
44.574478,-86.07937,"MI","Benzie"
40.820541,-73.98782,"NJ","Bergen"
33.192514,-80.03063,"SC","Berkeley"
39.444061,-77.951924,"WV","Berkeley"
40.454205,-75.581444,"PA","Berks"
42.190904,-73.051661,"MA","Berkshire"
35.124363,-106.375103,"NM","Bernalillo"
31.383968,-83.221348,"GA","Berrien"
42.14338,-86.348568,"MI","Berrien"
36.169398,-77.097225,"NC","Bertie"
29.279376,-98.735851,"TX","Bexar"
32.989499,-87.220392,"AL","Bibb"
32.827949,-83.595066,"GA","Bibb"
32.376273,-92.970592,"LA","Bienville"
45.536218,-106.961213,"MT","Big Horn"
44.346935,-108.165824,"WY","Big Horn"
45.559291,-96.558886,"MN","Big Stone"
46.921188,-103.509564,"ND","Billings"
43.033131,-112.428535,"ID","Bingham"
42.517091,-92.43585,"IA","Black Hawk"
40.472672,-85.326447,"IN","Blackford"
34.621027,-78.725506,"NC","Bladen"
43.39476,-114.217718,"ID","Blaine"
48.487741,-109.261678,"MT","Blaine"
41.936376,-99.857111,"NE","Blaine"
35.630034,-98.32054,"OK","Blaine"
40.489433,-78.349874,"PA","Blair"
30.137027,-98.419985,"TX","Blanco"
37.127348,-81.15842,"VA","Bland"
32.383904,-83.321095,"GA","Bleckley"
35.609437,-85.210253,"TN","Bledsoe"
33.922162,-86.449262,"AL","Blount"
35.815758,-83.987698,"TN","Blount"
44.061451,-94.003112,"MN","Blue Earth"
44.088695,-116.065807,"ID","Boise"
34.074216,-90.75974,"MS","Bolivar"
37.319652,-90.04218,"MO","Bollinger"
43.024378,-97.783482,"SD","Bon Homme"
39.004543,-89.464108,"IL","Bond"
48.274708,-116.604444,"ID","Bonner"
43.516701,-111.691535,"ID","Bonneville"
36.295086,-93.092861,"AR","Boone"
42.038746,-94.143566,"IA","Boone"
42.276381,-88.823215,"IL","Boone"
40.050302,-86.490381,"IN","Boone"
39.015027,-84.773564,"KY","Boone"
38.781337,-92.265908,"MO","Boone"
41.648736,-98.011092,"NE","Boone"
37.997105,-81.71704,"WV","Boone"
32.743795,-101.432354,"TX","Borden"
31.791801,-97.520315,"TX","Bosque"
32.725032,-93.63759,"LA","Bossier"
37.351517,-79.905211,"VA","Botetourt"
48.830347,-100.601174,"ND","Bottineau"
40.046064,-105.097151,"CO","Boulder"
48.814078,-116.398202,"ID","Boundary"
37.821629,-94.714793,"KS","Bourbon"
38.296337,-84.151319,"KY","Bourbon"
33.411321,-94.177354,"TX","Bowie"
46.205537,-103.521263,"ND","Bowman"
42.219844,-103.073327,"NE","Box Butte"
41.609266,-112.124107,"UT","Box Elder"
38.43296,-82.693914,"KY","Boyd"
42.879903,-98.781334,"NE","Boyd"
37.636006,-84.849682,"KY","Boyle"
38.72342,-83.982911,"KY","Bracken"
29.968926,-82.122553,"FL","Bradford"
41.77197,-76.521266,"PA","Bradford"
33.566349,-92.240352,"AR","Bradley"
35.2637,-84.793619,"TN","Bradley"
41.880399,-85.162804,"MI","Branch"
31.178954,-82.123686,"GA","Brantley"
38.777546,-80.656974,"WV","Braxton"
28.995948,-95.520413,"TX","Brazoria"
30.667044,-96.361631,"TX","Brazos"
37.515013,-83.26432,"KY","Breathitt"
37.847839,-86.463591,"KY","Breckinridge"
42.686195,-92.387102,"IA","Bremer"
28.699314,-80.895344,"FL","Brevard"
30.357926,-103.66029,"TX","Brewster"
34.380648,-101.087775,"TX","Briscoe"
41.998799,-71.200894,"MA","Bristol"
41.742501,-71.320395,"RI","Bristol"
36.613815,-82.176238,"VA","Bristol"
46.206922,-111.634364,"MT","Broadwater"
40.819329,-73.920355,"NY","Bronx"
40.225862,-80.65135,"WV","Brooke"
44.304195,-96.667977,"SD","Brookings"
30.856633,-83.526479,"GA","Brooks"
27.023059,-98.261049,"TX","Brooks"
42.080494,-76.097288,"NY","Broome"
26.062416,-80.159667,"FL","Broward"
39.978147,-90.756924,"IL","Brown"
39.244566,-86.267561,"IN","Brown"
39.699141,-95.462469,"KS","Brown"
44.111351,-94.907833,"MN","Brown"
42.542734,-99.852364,"NE","Brown"
38.693525,-83.740804,"OH","Brown"
45.476172,-98.410405,"SD","Brown"
31.801502,-98.827637,"TX","Brown"
44.453629,-87.978279,"WI","Brown"
43.772585,-99.149806,"SD","Brule"
33.926255,-78.07127,"NC","Brunswick"
36.858078,-77.894632,"VA","Brunswick"
32.159233,-81.502963,"GA","Bryan"
33.971979,-96.457371,"OK","Bryan"
42.570346,-91.748063,"IA","Buchanan"
39.631108,-94.714003,"MO","Buchanan"
37.287992,-82.027408,"VA","Buchanan"
37.563225,-78.53643,"VA","Buckingham"
40.328645,-75.10278,"PA","Bucks"
42.735002,-95.151118,"IA","Buena Vista"
37.730001,-79.355121,"VA","Buena Vista City"
40.916581,-99.292974,"NE","Buffalo"
44.064873,-99.251509,"SD","Buffalo"
44.346721,-91.836481,"WI","Buffalo"
38.04141,-85.581303,"KY","Bullitt"
32.352307,-81.6571,"GA","Bulloch"
32.092808,-85.704649,"AL","Bullock"
35.628016,-82.556751,"NC","Buncombe"
41.43043,-89.240006,"IL","Bureau"
33.05387,-81.684489,"GA","Burke"
35.689483,-81.538697,"NC","Burke"
48.837753,-102.283897,"ND","Burke"
47.212951,-100.548434,"ND","Burleigh"
30.526184,-96.658407,"TX","Burleson"
40.049948,-74.917061,"NJ","Burlington"
30.74431,-98.08625,"TX","Burnet"
45.972603,-92.292996,"WI","Burnett"
41.792415,-96.376462,"NE","Burt"
31.642713,-86.734317,"AL","Butler"
42.697108,-92.7981,"IA","Butler"
37.995545,-96.661017,"KS","Butler"
37.279564,-86.670181,"KY","Butler"
36.778764,-90.440688,"MO","Butler"
41.332034,-96.949369,"NE","Butler"
39.547254,-84.599698,"OH","Butler"
40.885861,-79.934048,"PA","Butler"
39.409669,-121.406274,"CA","Butte"
43.634236,-113.213308,"ID","Butte"
44.93037,-103.87313,"SD","Butte"
33.237156,-83.898277,"GA","Butts"
35.371633,-80.562141,"NC","Cabarrus"
38.379347,-82.264954,"WV","Cabell"
41.816936,-111.998197,"UT","Cache"
32.774283,-93.883624,"LA","Caddo"
35.203206,-98.357423,"OK","Caddo"
38.092294,-120.535316,"CA","Calaveras"
30.233355,-93.214903,"LA","Calcasieu"
37.201173,-87.988003,"KY","Caldwell"
32.055505,-92.164903,"LA","Caldwell"
39.598991,-93.828565,"MO","Caldwell"
35.994554,-81.726617,"NC","Caldwell"
29.889187,-97.573078,"TX","Caldwell"
44.359629,-72.086586,"VT","Caledonia"
33.759768,-85.792328,"AL","Calhoun"
33.516751,-92.582269,"AR","Calhoun"
30.553171,-85.171315,"FL","Calhoun"
31.47718,-84.699156,"GA","Calhoun"
42.279298,-94.465144,"IA","Calhoun"
39.004588,-90.653455,"IL","Calhoun"
42.119031,-85.214348,"MI","Calhoun"
33.856165,-89.303214,"MS","Calhoun"
33.570316,-80.708141,"SC","Calhoun"
28.525453,-96.694818,"TX","Calhoun"
38.828582,-81.132151,"WV","Calhoun"
32.16742,-99.221055,"TX","Callahan"
38.887421,-91.768887,"MO","Callaway"
36.690186,-88.283872,"KY","Calloway"
44.020561,-88.185906,"WI","Calumet"
38.444727,-76.533026,"MD","Calvert"
43.528155,-114.730694,"ID","Camas"
40.658721,-78.794582,"PA","Cambria"
30.804684,-81.627717,"GA","Camden"
38.024609,-92.744846,"MO","Camden"
36.389961,-76.199736,"NC","Camden"
39.908663,-75.010307,"NJ","Camden"
29.791099,-93.437979,"LA","Cameron"
41.417566,-78.204927,"PA","Cameron"
26.052155,-97.514466,"TX","Cameron"
32.989797,-94.936022,"TX","Camp"
38.921584,-84.374584,"KY","Campbell"
45.833733,-100.020048,"SD","Campbell"
36.302779,-84.20298,"TN","Campbell"
37.242503,-79.109789,"VA","Campbell"
44.377283,-105.550237,"WY","Campbell"
35.547575,-98.151236,"OK","Canadian"
32.39938,-82.048201,"GA","Candler"
35.933832,-86.112561,"TN","Cannon"
43.630795,-116.717598,"ID","Canyon"
37.341398,-89.611016,"MO","Cape Girardeau"
39.112027,-74.731427,"NJ","Cape May"
45.161913,-109.158349,"MT","Carbon"
40.813281,-75.59202,"PA","Carbon"
39.567883,-110.650901,"UT","Carbon"
41.538075,-106.921959,"WY","Carbon"
42.813756,-111.52793,"ID","Caribou"
36.789033,-89.009178,"KY","Carlisle"
46.556833,-92.720097,"MN","Carlton"
38.740562,-75.958683,"MD","Caroline"
38.008401,-77.260353,"VA","Caroline"
36.431111,-93.699392,"AR","Carroll"
33.587706,-85.123883,"GA","Carroll"
41.957228,-94.735083,"IA","Carroll"
41.994827,-89.877636,"IL","Carroll"
40.500141,-86.507065,"IN","Carroll"
38.663866,-85.098906,"KY","Carroll"
39.499102,-76.910108,"MD","Carroll"
39.410971,-93.431928,"MO","Carroll"
33.65497,-90.053958,"MS","Carroll"
43.694809,-71.323953,"NH","Carroll"
40.686028,-81.02187,"OH","Carroll"
36.077501,-88.495094,"TN","Carroll"
36.664788,-80.729669,"VA","Carroll"
35.276741,-101.232275,"TX","Carson"
39.154485,-119.73074,"NV","Carson City"
38.433912,-83.133597,"KY","Carter"
36.934404,-90.746313,"MO","Carter"
45.567085,-104.539066,"MT","Carter"
34.156627,-97.179214,"OK","Carter"
36.330784,-82.122892,"TN","Carter"
34.873922,-76.587097,"NC","Carteret"
44.723162,-93.701637,"MN","Carver"
47.402024,-111.422948,"MT","Cascade"
37.242524,-84.89986,"KY","Casey"
41.390677,-94.813882,"IA","Cass"
39.913938,-90.370736,"IL","Cass"
40.634254,-86.269625,"IN","Cass"
41.904174,-85.999067,"MI","Cass"
46.862332,-94.641872,"MN","Cass"
38.784041,-94.532397,"MO","Cass"
46.859694,-97.214587,"ND","Cass"
41.042487,-96.104359,"NE","Cass"
33.08447,-94.242023,"TX","Cass"
42.339326,-113.461324,"ID","Cassia"
34.530453,-102.262133,"TX","Castro"
36.466412,-79.275549,"NC","Caswell"
31.746835,-91.890463,"LA","Catahoula"
35.758221,-81.308224,"NC","Catawba"
34.980249,-85.140798,"GA","Catoosa"
33.913868,-108.649811,"NM","Catron"
42.408583,-78.984391,"NY","Cattaraugus"
48.77178,-98.464102,"ND","Cavalier"
42.894381,-76.565683,"NY","Cayuga"
39.535078,-75.894051,"MD","Cecil"
41.864242,-91.024771,"IA","Cedar"
37.865205,-94.012373,"MO","Cedar"
42.429295,-97.212986,"NE","Cedar"
40.813628,-78.238986,"PA","Centre"
43.116477,-93.270559,"IA","Cerro Gordo"
38.629119,-106.120582,"CO","Chaffee"
32.783137,-85.275581,"AL","Chambers"
29.662044,-94.592995,"TX","Chambers"
40.370897,-88.152546,"IL","Champaign"
40.161025,-83.648461,"OH","Champaign"
39.590245,-93.133852,"MO","Chariton"
38.603783,-76.867928,"MD","Charles"
37.354115,-77.073103,"VA","Charles City"
42.984707,-98.175204,"SD","Charles Mix"
32.780326,-79.940844,"SC","Charleston"
45.523425,-85.332038,"MI","Charlevoix"
26.901981,-82.000005,"FL","Charlotte"
37.087895,-78.637846,"VA","Charlotte"
38.026588,-78.48045,"VA","Charlottesville City"
30.855314,-82.027252,"GA","Charlton"
38.260042,-96.822766,"KS","Chase"
40.52473,-101.69724,"NE","Chase"
32.107103,-81.291335,"GA","Chatham"
35.608354,-79.372362,"NC","Chatham"
32.292547,-84.736706,"GA","Chattahoochee"
34.392073,-85.417428,"GA","Chattooga"
37.130234,-96.444127,"KS","Chautauqua"
42.487716,-79.328287,"NY","Chautauqua"
33.346666,-104.593687,"NM","Chaves"
36.297807,-87.083657,"TN","Cheatham"
45.753019,-84.691745,"MI","Cheboygan"
47.573816,-120.351884,"WA","Chelan"
42.156516,-76.93164,"NY","Chemung"
42.479801,-75.622857,"NY","Chenango"
34.359072,-85.611793,"AL","Cherokee"
34.30116,-84.442937,"GA","Cherokee"
42.719513,-95.534693,"IA","Cherokee"
37.139184,-94.789814,"KS","Cherokee"
35.219991,-83.785397,"NC","Cherokee"
35.8093,-95.076549,"OK","Cherokee"
35.00549,-81.63383,"SC","Cherokee"
31.873255,-95.228829,"TX","Cherokee"
42.542631,-101.126167,"NE","Cherry"
36.749991,-76.218759,"VA","Chesapeake City"
42.903656,-72.248052,"NH","Cheshire"
40.040057,-75.488793,"PA","Chester"
34.596281,-81.083171,"SC","Chester"
35.428488,-88.429204,"TN","Chester"
34.470238,-80.256814,"SC","Chesterfield"
37.454138,-77.66258,"VA","Chesterfield"
38.847485,-102.524932,"CO","Cheyenne"
39.750443,-101.532798,"KS","Cheyenne"
41.380172,-103.031435,"NE","Cheyenne"
43.13992,-92.424719,"IA","Chickasaw"
34.013571,-88.996107,"MS","Chickasaw"
33.470414,-91.394712,"AR","Chicot"
34.4104,-100.236376,"TX","Childress"
32.856632,-86.652875,"AL","Chilton"
46.278437,-84.196899,"MI","Chippewa"
44.992549,-95.36042,"MN","Chippewa"
45.042352,-91.408026,"WI","Chippewa"
45.513447,-92.894239,"MN","Chisago"
44.507404,-73.151384,"VT","Chittenden"
32.115939,-88.273598,"AL","Choctaw"
33.278252,-89.191298,"MS","Choctaw"
34.028048,-95.869986,"OK","Choctaw"
47.861021,-110.471075,"MT","Chouteau"
36.135621,-76.580107,"NC","Chowan"
39.37433,-89.198256,"IL","Christian"
37.043116,-87.487724,"KY","Christian"
37.046128,-93.405929,"MO","Christian"
39.479393,-118.296879,"NV","Churchill"
35.273985,-107.991394,"NM","Cibola"
36.742042,-102.510484,"OK","Cimarron"
28.867027,-82.572703,"FL","Citrus"
45.247636,-122.468991,"OR","Clackamas"
32.68552,-93.033603,"LA","Claiborne"
31.997408,-90.716602,"MS","Claiborne"
36.566257,-83.636479,"TN","Claiborne"
48.006094,-124.360572,"WA","Clallam"
43.976073,-84.739685,"MI","Clare"
33.685155,-80.190733,"SC","Clarendon"
40.98399,-79.615234,"PA","Clarion"
34.055486,-93.189406,"AR","Clark"
44.177432,-112.219898,"ID","Clark"
39.293482,-87.954456,"IL","Clark"
38.539899,-85.421753,"IN","Clark"
37.171946,-99.769576,"KS","Clark"
37.968496,-84.157766,"KY","Clark"
40.357643,-91.45886,"MO","Clark"
36.322484,-114.819717,"NV","Clark"
39.99914,-83.622204,"OH","Clark"
44.90626,-97.708049,"SD","Clark"
45.923556,-122.450194,"WA","Clark"
44.960186,-90.374893,"WI","Clark"
31.58842,-87.840875,"AL","Clarke"
33.992902,-83.353697,"GA","Clarke"
41.026682,-93.925695,"IA","Clarke"
32.14342,-88.819543,"MS","Clarke"
39.135711,-77.991926,"VA","Clarke"
45.810934,-123.962989,"OR","Clatsop"
33.116229,-86.138624,"AL","Clay"
36.379467,-90.538667,"AR","Clay"
30.105553,-81.768964,"FL","Clay"
31.557533,-84.854212,"GA","Clay"
43.004019,-95.299649,"IA","Clay"
38.757302,-88.473594,"IL","Clay"
39.415414,-87.065524,"IN","Clay"
39.349452,-97.164849,"KS","Clay"
37.147687,-83.737014,"KY","Clay"
46.890034,-96.506156,"MN","Clay"
39.332601,-94.274632,"MO","Clay"
33.659271,-88.753976,"MS","Clay"
35.025885,-83.878025,"NC","Clay"
40.524526,-98.051184,"NE","Clay"
42.827796,-96.847373,"SD","Clay"
36.547777,-85.512924,"TN","Clay"
33.634364,-98.015081,"TX","Clay"
38.465777,-81.050662,"WV","Clay"
33.518505,-84.337523,"GA","Clayton"
42.756961,-91.34453,"IA","Clayton"
39.75315,-105.635592,"CO","Clear Creek"
41.054375,-78.41095,"PA","Clearfield"
46.507385,-116.296141,"ID","Clearwater"
47.531644,-95.377949,"MN","Clearwater"
33.706595,-85.509902,"AL","Cleburne"
35.632128,-92.157022,"AR","Cleburne"
39.014823,-84.205859,"OH","Clermont"
33.866338,-92.276397,"AR","Cleveland"
35.254876,-81.691402,"NC","Cleveland"
35.208566,-97.44451,"OK","Cleveland"
37.824232,-79.823119,"VA","Clifton Forge City"
31.064114,-82.68954,"GA","Clinch"
41.9604,-90.636408,"IA","Clinton"
38.514316,-89.627154,"IL","Clinton"
40.211041,-86.64787,"IN","Clinton"
36.745738,-85.181967,"KY","Clinton"
42.819509,-84.483853,"MI","Clinton"
39.649352,-94.383777,"MO","Clinton"
44.71187,-73.637104,"NY","Clinton"
39.40252,-83.894217,"OH","Clinton"
41.105476,-77.50553,"PA","Clinton"
39.551634,-97.656764,"KS","Cloud"
34.256003,-90.634809,"MS","Coahoma"
34.592949,-96.303069,"OK","Coal"
33.912473,-84.557181,"GA","Cobb"
32.035885,-110.262611,"AZ","Cochise"
33.606603,-102.825745,"TX","Cochran"
36.104208,-83.121619,"TN","Cocke"
35.537441,-111.27586,"AZ","Coconino"
44.955643,-97.177954,"SD","Codington"
31.407434,-86.083517,"AL","Coffee"
31.549597,-82.987305,"GA","Coffee"
35.643787,-86.183248,"TN","Coffee"
38.236316,-95.733598,"KS","Coffey"
31.854544,-100.343161,"TX","Coke"
34.733866,-87.90624,"AL","Colbert"
38.595556,-92.370285,"MO","Cole"
31.745879,-99.458967,"TX","Coleman"
39.531041,-88.040616,"IL","Coles"
41.663195,-97.137751,"NE","Colfax"
36.512495,-104.919697,"NM","Colfax"
33.029619,-80.762449,"SC","Colleton"
25.855534,-81.38719,"FL","Collier"
33.208033,-96.646773,"TX","Collin"
34.840485,-100.204928,"TX","Collingsworth"
37.26219,-77.396989,"VA","Colonial Heights City"
29.60466,-96.524899,"TX","Colorado"
31.080682,-83.649138,"GA","Colquitt"
33.112106,-93.203998,"AR","Columbia"
30.105451,-82.68778,"FL","Columbia"
33.573999,-82.312058,"GA","Columbia"
42.309805,-73.565617,"NY","Columbia"
46.066499,-123.205886,"OR","Columbia"
41.218998,-76.395426,"PA","Columbia"
46.392683,-117.94953,"WA","Columbia"
43.342813,-89.557023,"WI","Columbia"
40.677372,-80.600629,"OH","Columbiana"
34.275295,-78.350029,"NC","Columbus"
39.0134,-121.996852,"CA","Colusa"
29.881355,-98.408614,"TX","Comal"
37.25486,-99.322574,"KS","Comanche"
34.635378,-98.448452,"OK","Comanche"
31.979672,-98.513844,"TX","Comanche"
31.174061,-99.876368,"TX","Concho"
31.308416,-91.823219,"LA","Concordia"
31.489241,-87.052004,"AL","Conecuh"
37.135059,-106.190367,"CO","Conejos"
37.832075,-121.916718,"CA","Contra Costa"
42.987443,-104.919086,"WY","Converse"
35.311464,-92.572763,"AR","Conway"
31.151742,-83.407143,"GA","Cook"
42.085626,-87.99822,"IL","Cook"
47.872285,-90.42294,"MN","Cook"
33.490924,-97.313913,"TX","Cooke"
38.819678,-92.606295,"MO","Cooper"
44.512344,-71.194226,"NH","Coos"
43.246918,-124.231068,"OR","Coos"
33.058725,-86.079106,"AL","Coosa"
31.965088,-90.375733,"MS","Copiah"
45.847567,-101.09974,"SD","Corson"
42.565932,-75.955301,"NY","Cortland"
31.202919,-97.930051,"TX","Coryell"
40.357237,-81.643638,"OH","Coshocton"
37.435812,-105.57348,"CO","Costilla"
34.074854,-100.258156,"TX","Cottle"
34.284738,-98.40044,"OK","Cotton"
43.900192,-95.046828,"MN","Cottonwood"
31.260882,-86.444833,"AL","Covington"
31.717905,-89.623543,"MS","Covington"
37.780216,-79.986963,"VA","Covington City"
33.275619,-84.741266,"GA","Coweta"
37.149582,-96.904215,"KS","Cowley"
46.379714,-123.056039,"WA","Cowlitz"
36.723649,-95.197639,"OK","Craig"
37.498957,-80.138591,"VA","Craig"
35.835847,-90.623071,"AR","Craighead"
31.500553,-102.347243,"TX","Crane"
35.129461,-77.01996,"NC","Craven"
35.479157,-94.193334,"AR","Crawford"
32.715632,-83.915762,"GA","Crawford"
41.911924,-95.135602,"IA","Crawford"
39.134986,-87.838419,"IL","Crawford"
38.329303,-86.575635,"IN","Crawford"
37.601241,-94.697518,"KS","Crawford"
44.786738,-84.697844,"MI","Crawford"
38.10595,-91.248694,"MO","Crawford"
40.832674,-82.973876,"OH","Crawford"
41.629436,-80.214024,"PA","Crawford"
43.084008,-91.069064,"WI","Crawford"
35.835606,-96.303922,"OK","Creek"
31.560143,-86.327501,"AL","Crenshaw"
31.917178,-83.785365,"GA","Crisp"
35.210811,-90.203849,"AR","Crittenden"
37.336533,-88.079607,"KY","Crittenden"
35.806106,-89.086594,"TN","Crockett"
30.798496,-101.498604,"TX","Crockett"
44.127641,-119.864655,"OR","Crook"
44.738184,-104.288519,"WY","Crook"
33.616133,-101.306058,"TX","Crosby"
35.357184,-90.677331,"AR","Cross"
46.350195,-94.099983,"MN","Crow Wing"
38.229447,-103.804241,"CO","Crowley"
31.03912,-104.824473,"TX","Culberson"
34.265451,-86.712779,"AL","Cullman"
38.511694,-77.9928,"VA","Culpeper"
39.274017,-88.124598,"IL","Cumberland"
36.879564,-85.317785,"KY","Cumberland"
43.735867,-69.995456,"ME","Cumberland"
35.053416,-78.781027,"NC","Cumberland"
39.3762,-75.1617,"NJ","Cumberland"
40.21604,-76.924996,"PA","Cumberland"
35.951478,-84.812093,"TN","Cumberland"
37.64794,-78.138859,"VA","Cumberland"
41.995729,-96.671008,"NE","Cuming"
36.307995,-75.918814,"NC","Currituck"
34.497241,-103.294978,"NM","Curry"
42.656925,-124.133206,"OR","Curry"
38.095173,-105.421953,"CO","Custer"
44.50599,-114.222666,"ID","Custer"
46.447808,-105.795343,"MT","Custer"
41.620773,-99.864392,"NE","Custer"
35.538228,-98.703175,"OK","Custer"
43.666816,-103.371071,"SD","Custer"
41.456905,-81.693019,"OH","Cuyahoga"
34.813904,-85.501868,"GA","Dade"
37.431754,-93.849903,"MO","Dade"
40.936315,-109.432883,"UT","Daggett"
44.547215,-93.153115,"MN","Dakota"
42.332188,-96.465599,"NE","Dakota"
31.455485,-85.633907,"AL","Dale"
36.277826,-102.602022,"TX","Dallam"
32.43372,-87.055532,"AL","Dallas"
34.101037,-92.516827,"AR","Dallas"
41.617591,-94.034515,"IA","Dallas"
37.6596,-93.018874,"MO","Dallas"
32.767268,-96.777626,"TX","Dallas"
42.903829,-89.586339,"WI","Dane"
48.781396,-105.562544,"MT","Daniels"
36.603501,-79.376228,"VA","Danville City"
35.776474,-75.635823,"NC","Dare"
40.214675,-84.653188,"OH","Darke"
34.269558,-80.005897,"SC","Darlington"
40.600992,-76.811693,"PA","Dauphin"
35.608108,-80.144554,"NC","Davidson"
36.170556,-86.8825,"TN","Davidson"
35.945381,-80.448686,"NC","Davie"
38.689503,-87.121505,"IN","Daviess"
37.751818,-87.257303,"KY","Daviess"
39.893337,-94.090928,"MO","Daviess"
40.746315,-92.406245,"IA","Davis"
40.874038,-111.870994,"UT","Davis"
43.69591,-98.086401,"SD","Davison"
42.774479,-103.138479,"NE","Dawes"
34.453661,-84.155043,"GA","Dawson"
47.463408,-104.988111,"MT","Dawson"
40.980376,-99.685939,"NE","Dawson"
32.715593,-101.937544,"TX","Dawson"
45.319218,-97.637812,"SD","Day"
34.531467,-104.174298,"NM","De Baca"
34.337295,-85.85769,"AL","De Kalb"
42.008626,-88.83055,"IL","De Kalb"
41.501455,-85.071275,"IN","De Kalb"
27.186146,-81.809939,"FL","De Soto"
32.172214,-93.790471,"LA","De Soto"
34.80684,-89.994591,"MS","De Soto"
29.093677,-97.260776,"TX","De Witt"
34.910608,-102.200173,"TX","Deaf Smith"
39.091081,-84.988904,"IN","Dearborn"
30.835331,-84.511949,"GA","Decatur"
40.634604,-93.8105,"IA","Decatur"
39.424072,-85.347677,"IN","Decatur"
39.784578,-100.459467,"KS","Decatur"
35.448494,-88.121113,"TN","Decatur"
46.15821,-113.009421,"MT","Deer Lodge"
41.296657,-84.390413,"OH","Defiance"
33.771704,-84.23937,"GA","Dekalb"
39.904361,-94.490744,"MO","Dekalb"
36.034524,-85.997115,"TN","Dekalb"
41.744452,-124.056897,"CA","Del Norte"
42.457286,-91.564233,"IA","Delaware"
40.142124,-85.389874,"IN","Delaware"
42.413508,-74.61939,"NY","Delaware"
40.389346,-82.98071,"OH","Delaware"
36.265655,-94.694674,"OK","Delaware"
39.998811,-75.30793,"PA","Delaware"
38.805013,-107.983125,"CO","Delta"
45.695595,-87.207306,"MI","Delta"
33.356865,-95.584162,"TX","Delta"
37.612779,-91.652493,"MO","Dent"
33.007436,-96.895893,"TX","Denton"
39.726303,-104.856808,"CO","Denver"
40.898412,-91.164393,"IA","Des Moines"
44.082037,-121.227125,"OR","Deschutes"
33.608922,-91.207356,"AR","Desha"
41.111961,-102.261262,"NE","Deuel"
44.562302,-96.591264,"SD","Deuel"
35.988409,-99.007165,"OK","Dewey"
45.001611,-101.232885,"SD","Dewey"
40.152822,-88.947118,"IL","Dewitt"
33.616428,-100.779303,"TX","Dickens"
37.130943,-82.344881,"VA","Dickenson"
46.106141,-98.620707,"ND","Dickey"
43.377945,-95.24015,"IA","Dickinson"
38.9111,-97.195283,"KS","Dickinson"
46.021627,-87.874496,"MI","Dickinson"
36.039122,-87.26284,"TN","Dickson"
34.422187,-79.341359,"SC","Dillon"
28.448923,-99.759184,"TX","Dimmit"
37.072361,-77.647495,"VA","Dinwiddie"
38.911936,-77.016719,"DC","District Of Columbia"
48.928166,-103.296728,"ND","Divide"
29.680616,-83.089669,"FL","Dixie"
42.445278,-96.884378,"NE","Dixon"
39.270846,-80.719742,"WV","Doddridge"
32.150374,-83.055544,"GA","Dodge"
44.046168,-92.975313,"MN","Dodge"
41.487786,-96.501672,"NE","Dodge"
43.217506,-88.525315,"WI","Dodge"
37.718233,-108.791671,"CO","Dolores"
32.52512,-107.100101,"NM","Dona Ana"
39.712615,-95.186894,"KS","Doniphan"
34.968107,-100.891655,"TX","Donley"
32.185828,-83.901376,"GA","Dooly"
45.077002,-87.14603,"WI","Door"
38.479813,-76.079864,"MD","Dorchester"
33.014817,-80.195143,"SC","Dorchester"
31.560674,-84.176751,"GA","Dougherty"
39.374779,-104.849988,"CO","Douglas"
33.765457,-84.646946,"GA","Douglas"
39.725828,-88.305182,"IL","Douglas"
38.821502,-95.223906,"KS","Douglas"
45.902017,-95.420589,"MN","Douglas"
36.951914,-92.665499,"MO","Douglas"
41.357015,-96.203393,"NE","Douglas"
38.818277,-119.649498,"NV","Douglas"
42.834139,-123.13216,"OR","Douglas"
43.341035,-98.398964,"SD","Douglas"
47.497831,-120.214402,"WA","Douglas"
46.555409,-91.605419,"WI","Douglas"
33.590601,-91.732829,"AR","Drew"
41.887579,-88.022516,"IL","Du Page"
38.326772,-86.820726,"IN","Dubois"
42.458876,-90.877135,"IA","Dubuque"
40.320728,-110.435974,"UT","Duchesne"
41.379034,-70.673082,"MA","Dukes"
40.103088,-101.789168,"NE","Dundy"
36.064878,-90.229246,"MO","Dunklin"
47.305726,-102.202834,"ND","Dunn"
45.075804,-92.013036,"WI","Dunn"
35.141931,-78.099221,"NC","Duplin"
36.09206,-78.885147,"NC","Durham"
41.826491,-73.710901,"NY","Dutchess"
30.337538,-81.768622,"FL","Duval"
27.592468,-98.414188,"TX","Duval"
36.158668,-89.437684,"TN","Dyer"
39.860356,-106.631246,"CO","Eagle"
31.346088,-84.901178,"GA","Early"
30.51589,-91.080373,"LA","East Baton Rouge"
32.796407,-91.252622,"LA","East Carroll"
30.842734,-90.960294,"LA","East Feliciana"
32.228414,-98.819663,"TX","Eastland"
42.574191,-84.838452,"MI","Eaton"
44.75653,-91.473097,"WI","Eau Claire"
30.768894,-83.037116,"GA","Echols"
31.981472,-102.615727,"TX","Ector"
47.71736,-98.898693,"ND","Eddy"
32.622225,-104.433331,"NM","Eddy"
39.713401,-87.818005,"IL","Edgar"
35.949051,-77.641181,"NC","Edgecombe"
33.767808,-81.987524,"SC","Edgefield"
37.09425,-86.143188,"KY","Edmonson"
45.469377,-99.595667,"SD","Edmunds"
38.519678,-88.009457,"IL","Edwards"
37.951204,-99.098947,"KS","Edwards"
29.956952,-100.227509,"TX","Edwards"
32.488015,-81.322392,"GA","Effingham"
39.116649,-88.545705,"IL","Effingham"
38.81419,-120.895188,"CA","El Dorado"
39.086393,-104.807666,"CO","El Paso"
31.725097,-106.359795,"TX","El Paso"
39.382335,-104.084781,"CO","Elbert"
34.164131,-82.957102,"GA","Elbert"
37.383228,-96.272149,"KS","Elk"
41.415878,-78.665057,"PA","Elk"
41.712983,-85.824845,"IN","Elkhart"
40.905583,-115.534429,"NV","Elko"
38.131568,-83.079708,"KY","Elliott"
38.878202,-99.334803,"KS","Ellis"
36.204191,-99.818311,"OK","Ellis"
32.211518,-96.736746,"TX","Ellis"
38.696579,-98.205437,"KS","Ellsworth"
32.505625,-86.332245,"AL","Elmore"
43.847915,-115.253751,"ID","Elmore"
32.569871,-82.346181,"GA","Emanuel"
39.196393,-111.052868,"UT","Emery"
43.407517,-94.531703,"IA","Emmet"
45.539802,-84.805792,"MI","Emmet"
46.56035,-100.107546,"ND","Emmons"
36.694745,-77.535517,"VA","Emporia City"
32.321348,-98.108828,"TX","Erath"
43.013808,-78.525296,"NY","Erie"
41.59593,-82.706816,"OH","Erie"
41.894652,-80.311081,"PA","Erie"
31.129427,-87.096126,"AL","Escambia"
30.424838,-87.256471,"FL","Escambia"
37.585111,-117.604871,"NV","Esmeralda"
42.647991,-71.165685,"MA","Essex"
40.808549,-74.187005,"NJ","Essex"
44.214452,-73.787317,"NY","Essex"
38.024704,-77.037147,"VA","Essex"
44.581613,-71.833956,"VT","Essex"
37.70424,-83.944815,"KY","Estill"
34.024285,-86.074145,"AL","Etowah"
39.547797,-115.993806,"NV","Eureka"
30.67837,-92.519207,"LA","Evangeline"
32.163392,-81.87191,"GA","Evans"
38.84479,-77.46701,"VA","Fairfax"
38.853231,-77.305097,"VA","Fairfax City"
41.165097,-73.129186,"CT","Fairfield"
39.884758,-82.539214,"OH","Fairfield"
34.41478,-81.270211,"SC","Fairfield"
43.294549,-103.830431,"SD","Fall River"
46.351496,-104.273377,"MT","Fallon"
31.103376,-96.998652,"TX","Falls"
38.884177,-77.171752,"VA","Falls Church City"
34.831246,-84.331339,"GA","Fannin"
33.416579,-96.213438,"TX","Fannin"
43.6503,-93.977974,"MN","Faribault"
45.136245,-98.915424,"SD","Faulk"
35.146446,-92.376466,"AR","Faulkner"
38.840456,-77.891136,"VA","Fauquier"
33.712675,-87.774117,"AL","Fayette"
33.30009,-84.453196,"GA","Fayette"
42.752653,-91.69556,"IA","Fayette"
39.112821,-89.212452,"IL","Fayette"
39.58598,-85.276882,"IN","Fayette"
38.016674,-84.486043,"KY","Fayette"
39.64064,-83.419366,"OH","Fayette"
40.070268,-79.603426,"PA","Fayette"
35.292102,-89.752615,"TN","Fayette"
30.112343,-96.719014,"TX","Fayette"
38.041293,-81.064784,"WV","Fayette"
36.381838,-84.775579,"TN","Fentress"
47.286641,-108.763415,"MT","Fergus"
48.84269,-118.182764,"WA","Ferry"
43.527479,-91.85297,"MN","Fillmore"
40.653635,-97.430884,"NE","Fillmore"
38.000771,-100.664407,"KS","Finney"
32.753257,-100.232805,"TX","Fisher"
29.402177,-81.33425,"FL","Flagler"
48.202765,-114.303919,"MT","Flathead"
38.3481,-83.718626,"KY","Fleming"
33.937811,-79.903726,"SC","Florence"
45.74447,-88.47565,"WI","Florence"
34.479253,-85.149208,"GA","Floyd"
43.136067,-92.77932,"IA","Floyd"
38.35257,-85.890727,"IN","Floyd"
37.479896,-82.6769,"KY","Floyd"
34.071514,-101.30313,"TX","Floyd"
37.044622,-80.227981,"VA","Floyd"
37.893119,-78.338579,"VA","Fluvanna"
33.968163,-99.641288,"TX","Foard"
43.682727,-88.350947,"WI","Fond Du Lac"
40.967141,-88.188841,"IL","Ford"
37.690531,-99.902421,"KS","Ford"
41.475887,-79.239101,"PA","Forest"
45.672311,-88.530545,"WI","Forest"
31.245138,-89.28071,"MS","Forrest"
34.193041,-84.092588,"GA","Forsyth"
36.213266,-80.084667,"NC","Forsyth"
29.50401,-95.919107,"TX","Fort Bend"
47.457278,-98.893314,"ND","Foster"
40.240204,-87.213921,"IN","Fountain"
34.373392,-87.946916,"AL","Franklin"
35.43356,-93.752642,"AR","Franklin"
29.819333,-84.852937,"FL","Franklin"
34.355933,-83.152947,"GA","Franklin"
42.600335,-93.223204,"IA","Franklin"
42.207519,-111.997341,"ID","Franklin"
37.994296,-88.941665,"IL","Franklin"
39.490701,-84.853529,"IN","Franklin"
38.550993,-95.263735,"KS","Franklin"
38.228115,-84.869708,"KY","Franklin"
32.311261,-91.68543,"LA","Franklin"
42.474681,-72.467543,"MA","Franklin"
44.602705,-70.22651,"ME","Franklin"
38.416838,-91.142077,"MO","Franklin"
31.465718,-90.895386,"MS","Franklin"
35.982555,-78.208581,"NC","Franklin"
40.097871,-99.037737,"NE","Franklin"
44.674942,-74.444789,"NY","Franklin"
39.969036,-83.011389,"OH","Franklin"
39.908055,-77.666445,"PA","Franklin"
35.089483,-86.175941,"TN","Franklin"
33.15396,-95.217812,"TX","Franklin"
37.098391,-79.95233,"VA","Franklin"
44.836967,-72.92169,"VT","Franklin"
46.42066,-118.899447,"WA","Franklin"
36.682635,-76.942233,"VA","Franklin City"
39.512748,-77.369299,"MD","Frederick"
39.150074,-78.268988,"VA","Frederick"
38.295135,-77.483689,"VA","Fredericksburg City"
43.686288,-93.389838,"MN","Freeborn"
31.595644,-96.075096,"TX","Freestone"
38.477727,-105.507603,"CO","Fremont"
40.72146,-95.477606,"IA","Fremont"
44.015259,-111.42527,"ID","Fremont"
42.472474,-107.760978,"WY","Fremont"
36.247025,-120.381432,"CA","Fresno"
28.965841,-98.857837,"TX","Frio"
40.643861,-100.54399,"NE","Frontier"
36.374704,-91.804608,"AR","Fulton"
34.112373,-84.30205,"GA","Fulton"
40.608139,-90.362984,"IL","Fulton"
41.047932,-86.069172,"IN","Fulton"
36.546939,-89.081143,"KY","Fulton"
43.082793,-74.160753,"NY","Fulton"
41.578355,-84.25106,"OH","Fulton"
39.943762,-78.122265,"PA","Fulton"
40.294628,-99.842844,"NE","Furnas"
30.640548,-84.780758,"FL","Gadsden"
40.45603,-96.513526,"NE","Gage"
32.671468,-102.644589,"TX","Gaines"
36.660281,-80.913605,"VA","Galax City"
37.887676,-88.146409,"IL","Gallatin"
38.732647,-84.805495,"KY","Gallatin"
45.426786,-111.099517,"MT","Gallatin"
38.92307,-82.276201,"OH","Gallia"
29.403211,-95.073408,"TX","Galveston"
41.315509,-102.153084,"NE","Garden"
39.500281,-107.585235,"CO","Garfield"
47.414133,-107.027417,"MT","Garfield"
41.782277,-99.134041,"NE","Garfield"
36.402681,-97.843091,"OK","Garfield"
37.729535,-110.543374,"UT","Garfield"
46.475341,-117.537763,"WA","Garfield"
34.526841,-92.958697,"AR","Garland"
37.651397,-84.546693,"KY","Garrard"
39.58935,-79.230969,"MD","Garrett"
34.836481,-97.51668,"OK","Garvin"
33.179123,-101.298004,"TX","Garza"
38.395272,-91.406851,"MO","Gasconade"
35.365255,-81.087967,"NC","Gaston"
36.520104,-76.59285,"NC","Gates"
39.026465,-96.783359,"KS","Geary"
41.447117,-81.152938,"OH","Geauga"
43.908876,-116.492657,"ID","Gem"
42.940019,-83.536923,"MI","Genesee"
42.998052,-78.184813,"NY","Genesee"
31.150094,-85.813687,"AL","Geneva"
40.256596,-94.330949,"MO","Gentry"
30.866791,-88.649035,"MS","George"
33.439327,-79.367525,"SC","Georgetown"
38.202701,-87.577358,"IN","Gibson"
36.134323,-89.028993,"TN","Gibson"
33.576401,-110.855618,"AZ","Gila"
29.749093,-82.865081,"FL","Gilchrist"
35.055109,-86.883959,"TN","Giles"
37.277231,-80.670159,"VA","Giles"
30.373945,-99.096213,"TX","Gillespie"
45.567282,-120.275127,"OR","Gilliam"
34.73249,-84.425035,"GA","Gilmer"
38.913649,-80.831256,"WV","Gilmer"
39.81599,-105.475322,"CO","Gilpin"
48.904169,-113.298384,"MT","Glacier"
26.886471,-81.195575,"FL","Glades"
43.965212,-84.436146,"MI","Gladwin"
33.223471,-82.599738,"GA","Glascock"
31.864331,-101.49375,"TX","Glasscock"
39.698298,-122.168928,"CA","Glenn"
39.802163,-75.339215,"NJ","Gloucester"
37.28822,-76.426013,"VA","Gloucester"
31.230428,-81.492883,"GA","Glynn"
46.423427,-89.992677,"MI","Gogebic"
46.383858,-109.003382,"MT","Golden Valley"
46.963728,-103.898766,"ND","Golden Valley"
28.677805,-97.260556,"TX","Goliad"
29.407188,-97.741358,"TX","Gonzales"
37.733844,-77.888082,"VA","Goochland"
44.483189,-92.885609,"MN","Goodhue"
42.918993,-114.887601,"ID","Gooding"
34.462493,-84.743027,"GA","Gordon"
42.213334,-104.518529,"WY","Goshen"
40.56962,-99.831972,"NE","Gosper"
38.915304,-100.483367,"KS","Gove"
30.857503,-84.22903,"GA","Grady"
34.914788,-97.78122,"OK","Grady"
43.930221,-71.534068,"NH","Grafton"
33.038678,-109.785973,"AZ","Graham"
39.360027,-99.6876,"KS","Graham"
35.423135,-83.779522,"NC","Graham"
36.250636,-83.493998,"TN","Grainger"
39.958523,-105.792637,"CO","Grand"
38.999877,-109.615008,"UT","Grand"
47.9041,-97.431501,"ND","Grand Forks"
44.93606,-73.289065,"VT","Grand Isle"
44.789382,-85.488449,"MI","Grand Traverse"
46.687633,-113.215445,"MT","Granite"
34.152591,-92.304314,"AR","Grant"
40.515421,-85.661196,"IN","Grant"
37.562467,-101.308565,"KS","Grant"
38.552305,-84.611567,"KY","Grant"
31.518701,-92.480731,"LA","Grant"
45.838396,-96.141993,"MN","Grant"
46.300853,-101.673608,"ND","Grant"
41.919117,-101.746919,"NE","Grant"
32.783939,-108.185406,"NM","Grant"
36.79613,-97.787099,"OK","Grant"
44.477794,-118.947769,"OR","Grant"
45.170552,-96.534574,"SD","Grant"
47.177565,-119.401958,"WA","Grant"
42.97045,-90.571655,"WI","Grant"
38.986974,-79.146211,"WV","Grant"
36.451463,-78.566691,"NC","Granville"
43.38631,-84.46894,"MI","Gratiot"
36.900149,-88.637039,"KY","Graves"
37.803608,-100.338634,"KS","Gray"
35.432839,-100.746559,"TX","Gray"
47.002735,-123.67129,"WA","Grays Harbor"
37.552184,-86.483592,"KY","Grayson"
33.76672,-96.546662,"TX","Grayson"
36.608229,-81.584934,"VA","Grayson"
38.469704,-101.747853,"KS","Greeley"
41.688144,-98.363282,"NE","Greeley"
37.27586,-85.519334,"KY","Green"
42.712827,-89.45123,"WI","Green"
43.679317,-89.186656,"WI","Green Lake"
37.844155,-80.538781,"WV","Greenbrier"
32.737366,-87.967724,"AL","Greene"
36.128069,-90.691421,"AR","Greene"
33.560655,-83.193389,"GA","Greene"
42.141856,-94.503538,"IA","Greene"
39.380638,-90.399251,"IL","Greene"
39.031541,-86.838359,"IN","Greene"
37.311381,-93.578642,"MO","Greene"
31.360647,-88.606456,"MS","Greene"
35.609289,-77.713073,"NC","Greene"
42.28004,-73.837035,"NY","Greene"
39.706459,-84.016233,"OH","Greene"
39.870635,-80.211335,"PA","Greene"
36.227409,-82.734005,"TN","Greene"
38.270529,-78.557765,"VA","Greene"
32.991251,-109.255872,"AZ","Greenlee"
36.721471,-77.531996,"VA","Greensville"
38.511714,-82.872362,"KY","Greenup"
34.848567,-82.402871,"SC","Greenville"
37.980393,-96.199508,"KS","Greenwood"
34.114209,-82.128301,"SC","Greenwood"
34.950884,-99.394148,"OK","Greer"
32.517846,-94.730285,"TX","Gregg"
43.248832,-99.016376,"SD","Gregory"
33.786016,-89.845462,"MS","Grenada"
47.489506,-98.410133,"ND","Griggs"
30.288721,-95.856892,"TX","Grimes"
42.260476,-92.806788,"IA","Grundy"
41.238676,-88.278834,"IL","Grundy"
40.160044,-93.416387,"MO","Grundy"
35.360328,-85.789682,"TN","Grundy"
34.781908,-104.718891,"NM","Guadalupe"
29.555429,-98.090085,"TX","Guadalupe"
39.91944,-81.53113,"OH","Guernsey"
36.193624,-79.674079,"NC","Guilford"
29.9323,-85.235414,"FL","Gulf"
38.820006,-106.660278,"CO","Gunnison"
41.827251,-94.449511,"IA","Guthrie"
33.960353,-84.037859,"GA","Gwinnett"
44.370733,-101.527178,"SD","Haakon"
34.50429,-83.594758,"GA","Habersham"
32.855347,-87.721868,"AL","Hale"
34.068903,-101.826997,"TX","Hale"
36.279884,-77.723443,"NC","Halifax"
36.596827,-79.043054,"VA","Halifax"
34.334398,-83.837912,"GA","Hall"
40.87227,-98.368698,"NE","Hall"
34.530559,-100.681047,"TX","Hall"
36.213293,-83.275211,"TN","Hamblen"
30.495814,-82.985428,"FL","Hamilton"
42.485099,-93.68778,"IA","Hamilton"
37.921925,-88.468436,"IL","Hamilton"
40.167756,-86.045789,"IN","Hamilton"
37.999701,-101.785968,"KS","Hamilton"
40.850832,-98.054272,"NE","Hamilton"
43.667618,-74.456913,"NY","Hamilton"
39.135158,-84.709797,"OH","Hamilton"
35.017572,-85.018914,"TN","Hamilton"
31.717077,-98.115083,"TX","Hamilton"
44.590094,-97.466776,"SD","Hamlin"
42.140549,-72.788661,"MA","Hampden"
42.367092,-72.464571,"MA","Hampshire"
39.314071,-78.659428,"WV","Hampshire"
32.885698,-81.206373,"SC","Hampton"
37.072658,-76.38992,"VA","Hampton City"
33.257068,-83.08922,"GA","Hancock"
43.081779,-93.734689,"IA","Hancock"
40.549636,-90.997312,"IL","Hancock"
39.894912,-85.792762,"IN","Hancock"
37.832151,-86.782723,"KY","Hancock"
44.641873,-68.391481,"ME","Hancock"
30.295608,-89.463187,"MS","Hancock"
41.115906,-83.535416,"OH","Hancock"
36.493188,-83.15127,"TN","Hancock"
40.556137,-80.565784,"WV","Hancock"
44.480979,-99.062766,"SD","Hand"
37.754912,-77.480128,"VA","Hanover"
36.230799,-101.310055,"TX","Hansford"
43.66844,-97.75632,"SD","Hanson"
33.767997,-85.172928,"GA","Haralson"
27.601936,-81.85069,"FL","Hardee"
35.197635,-88.986448,"TN","Hardeman"
34.195699,-99.547098,"TX","Hardeman"
42.430997,-93.390638,"IA","Hardin"
37.500757,-88.238292,"IL","Hardin"
37.899466,-85.952833,"KY","Hardin"
40.6401,-83.616923,"OH","Hardin"
35.110079,-88.292167,"TN","Hardin"
30.312185,-94.401843,"TX","Hardin"
35.804116,-103.902091,"NM","Harding"
45.578941,-103.493668,"SD","Harding"
38.999518,-78.821226,"WV","Hardy"
39.499909,-76.231177,"MD","Harford"
36.865351,-83.287927,"KY","Harlan"
40.101761,-99.352846,"NE","Harlan"
34.768632,-99.833341,"OK","Harmon"
35.478164,-78.729411,"NC","Harnett"
43.019785,-119.069624,"OR","Harney"
37.111488,-98.048121,"KS","Harper"
36.791802,-99.753511,"OK","Harper"
32.661625,-84.855447,"GA","Harris"
29.813142,-95.309789,"TX","Harris"
41.779196,-95.716392,"IA","Harrison"
38.190314,-86.115257,"IN","Harrison"
38.442076,-84.347201,"KY","Harrison"
40.258215,-94.020972,"MO","Harrison"
30.396277,-89.064103,"MS","Harrison"
40.263163,-81.030687,"OH","Harrison"
32.386275,-94.210541,"TX","Harrison"
39.287434,-80.341883,"WV","Harrison"
38.422777,-78.877137,"VA","Harrisonburg City"
34.383987,-83.03321,"GA","Hart"
37.370142,-85.913432,"KY","Hart"
41.757944,-72.728272,"CT","Hartford"
35.685842,-102.330294,"TX","Hartley"
38.021434,-97.537188,"KS","Harvey"
37.441023,-100.998474,"KS","Haskell"
35.258196,-95.134492,"OK","Haskell"
33.322098,-99.674393,"TX","Haskell"
36.495148,-82.732009,"TN","Hawkins"
40.524819,-101.061328,"NE","Hayes"
30.108361,-97.989275,"TX","Hays"
35.492743,-82.959555,"NC","Haywood"
35.633418,-89.276381,"TN","Haywood"
33.278005,-85.134045,"GA","Heard"
35.904503,-100.384093,"TX","Hemphill"
33.673559,-93.606807,"AR","Hempstead"
40.853583,-90.864536,"IL","Henderson"
37.778911,-87.60124,"KY","Henderson"
35.4319,-82.544826,"NC","Henderson"
35.666113,-88.215928,"TN","Henderson"
32.289838,-95.791559,"TX","Henderson"
39.736926,-86.483474,"IN","Hendricks"
26.630066,-81.090897,"FL","Hendry"
44.882838,-93.200671,"MN","Hennepin"
37.531296,-77.416103,"VA","Henrico"
31.559402,-85.222965,"AL","Henry"
33.408112,-84.273764,"GA","Henry"
40.845708,-91.670699,"IA","Henry"
41.295367,-90.290476,"IL","Henry"
39.836197,-85.474444,"IN","Henry"
38.452892,-85.016907,"KY","Henry"
38.388723,-93.924453,"MO","Henry"
41.419878,-84.013674,"OH","Henry"
36.428005,-88.179868,"TN","Henry"
36.670446,-79.742557,"VA","Henry"
43.271433,-75.04774,"NY","Herkimer"
28.586197,-82.395858,"FL","Hernando"
36.491011,-77.031055,"NC","Hertford"
46.369616,-102.326958,"ND","Hettinger"
36.680798,-88.979474,"KY","Hickman"
35.92171,-87.348964,"TN","Hickman"
38.024206,-93.228867,"MO","Hickory"
32.055007,-108.62913,"NM","Hidalgo"
26.269305,-98.224364,"TX","Hidalgo"
39.074262,-83.848414,"OH","Highland"
38.385967,-79.559157,"VA","Highland"
27.473059,-81.464053,"FL","Highlands"
48.663002,-110.09437,"MT","Hill"
32.176705,-97.20549,"TX","Hill"
27.764761,-82.273409,"FL","Hillsborough"
42.87474,-71.629365,"NH","Hillsborough"
41.956346,-84.767913,"MI","Hillsdale"
32.406956,-90.46141,"MS","Hinds"
38.026256,-107.276581,"CO","Hinsdale"
40.231495,-100.835774,"NE","Hitchcock"
39.504455,-82.242899,"OH","Hocking"
33.770506,-102.192713,"TX","Hockley"
38.121492,-99.709532,"KS","Hodgeman"
35.02363,-79.246841,"NC","Hoke"
30.875532,-85.684243,"FL","Holmes"
33.255582,-90.183344,"MS","Holmes"
40.547385,-81.876602,"OH","Holmes"
40.126706,-95.329064,"MO","Holt"
42.556421,-99.032048,"NE","Holt"
32.473973,-97.67747,"TX","Hood"
45.671017,-121.868565,"OR","Hood River"
42.042143,-101.045192,"NE","Hooker"
37.286676,-77.296596,"VA","Hopewell City"
37.220571,-87.624098,"KY","Hopkins"
33.168606,-95.585464,"TX","Hopkins"
33.939968,-79.041027,"SC","Horry"
34.276538,-93.11742,"AR","Hot Spring"
43.76976,-108.454106,"WY","Hot Springs"
47.072716,-88.634939,"MI","Houghton"
31.148124,-85.371845,"AL","Houston"
32.539506,-83.662733,"GA","Houston"
43.648232,-91.410977,"MN","Houston"
36.288768,-87.749245,"TN","Houston"
31.320814,-95.392816,"TX","Houston"
34.136218,-94.044286,"AR","Howard"
43.381795,-92.475226,"IA","Howard"
40.506851,-86.171054,"IN","Howard"
39.1332,-76.798843,"MD","Howard"
39.242532,-92.69974,"MO","Howard"
41.11924,-98.681367,"NE","Howard"
32.299597,-101.343248,"TX","Howard"
36.974825,-91.76979,"MO","Howell"
46.987609,-94.726405,"MN","Hubbard"
40.670858,-74.109486,"NJ","Hudson"
31.958194,-105.201061,"TX","Hudspeth"
37.787772,-105.18487,"CO","Huerfano"
35.028521,-96.235928,"OK","Hughes"
44.334073,-100.094195,"SD","Hughes"
40.646324,-124.025773,"CA","Humboldt"
42.863891,-94.295698,"IA","Humboldt"
41.263287,-118.174506,"NV","Humboldt"
33.263048,-90.59677,"MS","Humphreys"
35.923959,-87.810501,"TN","Humphreys"
33.076823,-96.219803,"TX","Hunt"
40.717424,-74.813951,"NJ","Hunterdon"
40.54851,-78.095064,"PA","Huntingdon"
40.820278,-85.597862,"IN","Huntington"
43.79455,-82.949138,"MI","Huron"
41.216488,-82.793687,"OH","Huron"
43.321384,-97.547869,"SD","Hutchinson"
35.728104,-101.487464,"TX","Hutchinson"
35.325223,-76.028472,"NC","Hyde"
44.574651,-99.486417,"SD","Hyde"
30.045066,-91.878675,"LA","Iberia"
30.261384,-91.36026,"LA","Iberville"
42.359052,-95.546574,"IA","Ida"
45.688686,-115.596198,"ID","Idaho"
32.782242,-114.561905,"CA","Imperial"
35.576231,-91.453861,"AR","Independence"
27.775251,-80.609403,"FL","Indian River"
40.542875,-79.397809,"PA","Indiana"
42.599184,-84.371973,"MI","Ingham"
36.235817,-117.144513,"CA","Inyo"
42.98004,-85.128727,"MI","Ionia"
44.349592,-83.562942,"MI","Iosco"
41.812242,-91.913869,"IA","Iowa"
43.119643,-89.947679,"WI","Iowa"
35.719228,-80.89909,"NC","Iredell"
31.143346,-101.126017,"TX","Irion"
46.030951,-88.377097,"MI","Iron"
37.4913,-90.6646,"MO","Iron"
37.721369,-113.663891,"UT","Iron"
46.395746,-90.191139,"WI","Iron"
40.876259,-87.973929,"IL","Iroquois"
31.706283,-83.408633,"GA","Irwin"
43.640574,-84.847417,"MI","Isabella"
45.69146,-93.278348,"MN","Isanti"
47.956934,-122.417721,"WA","Island"
36.989766,-76.572291,"VA","Isle Of Wight"
32.711257,-90.952716,"MS","Issaquena"
47.347269,-93.388826,"MN","Itasca"
34.276489,-88.355013,"MS","Itawamba"
36.185457,-91.915187,"AR","Izard"
33.161547,-98.387427,"TX","Jack"
34.799983,-85.803464,"AL","Jackson"
35.502463,-91.081687,"AR","Jackson"
40.480364,-106.448221,"CO","Jackson"
30.641158,-85.375585,"FL","Jackson"
34.109873,-83.685149,"GA","Jackson"
42.164053,-90.61074,"IA","Jackson"
37.77452,-89.387286,"IL","Jackson"
38.866192,-86.046452,"IN","Jackson"
39.528134,-95.848729,"KS","Jackson"
37.305202,-83.971127,"KY","Jackson"
32.29969,-92.44118,"LA","Jackson"
42.248979,-84.421104,"MI","Jackson"
43.674174,-95.154494,"MN","Jackson"
38.964518,-94.370275,"MO","Jackson"
30.441072,-88.634482,"MS","Jackson"
35.430091,-83.092783,"NC","Jackson"
39.110614,-82.613028,"OH","Jackson"
34.663039,-99.280343,"OK","Jackson"
42.482623,-122.72255,"OR","Jackson"
43.691966,-101.601609,"SD","Jackson"
36.369292,-85.681124,"TN","Jackson"
29.003797,-96.68519,"TX","Jackson"
44.451027,-90.975918,"WI","Jackson"
38.824924,-81.70665,"WV","Jackson"
37.223482,-76.783317,"VA","James City"
33.431362,-83.790756,"GA","Jasper"
41.811839,-93.159506,"IA","Jasper"
39.127107,-88.117007,"IL","Jasper"
41.107336,-87.208423,"IN","Jasper"
37.211097,-94.289465,"MO","Jasper"
32.109313,-89.187423,"MS","Jasper"
32.488929,-80.989142,"SC","Jasper"
30.867257,-93.997666,"TX","Jasper"
40.54116,-84.982803,"IN","Jay"
31.795977,-82.707079,"GA","Jeff Davis"
30.758682,-104.209994,"TX","Jeff Davis"
33.578097,-86.987228,"AL","Jefferson"
34.208962,-91.985946,"AR","Jefferson"
39.522014,-105.223945,"CO","Jefferson"
30.298333,-83.900753,"FL","Jefferson"
32.88914,-82.466644,"GA","Jefferson"
41.013559,-92.0835,"IA","Jefferson"
43.878511,-112.260858,"ID","Jefferson"
38.202361,-88.774226,"IL","Jefferson"
38.873448,-85.291935,"IN","Jefferson"
39.198095,-95.231788,"KS","Jefferson"
38.22977,-85.66304,"KY","Jefferson"
29.984643,-90.161821,"LA","Jefferson"
38.341665,-90.410219,"MO","Jefferson"
31.731988,-91.056503,"MS","Jefferson"
46.329577,-112.196662,"MT","Jefferson"
40.306449,-97.14239,"NE","Jefferson"
44.072542,-76.016589,"NY","Jefferson"
40.260579,-80.789377,"OH","Jefferson"
34.200318,-97.810259,"OK","Jefferson"
44.538351,-121.321903,"OR","Jefferson"
41.171119,-78.913113,"PA","Jefferson"
36.000789,-83.423276,"TN","Jefferson"
30.025795,-94.197989,"TX","Jefferson"
47.698291,-122.943809,"WA","Jefferson"
43.147748,-88.588628,"WI","Jefferson"
39.315914,-77.877223,"WV","Jefferson"
30.426249,-92.71368,"LA","Jefferson Davis"
31.582332,-89.781429,"MS","Jefferson Davis"
32.779376,-81.973904,"GA","Jenkins"
39.046146,-85.486831,"IN","Jennings"
44.122811,-98.412198,"SD","Jerauld"
42.586804,-114.246706,"ID","Jerome"
39.07267,-90.254596,"IL","Jersey"
37.950381,-84.656887,"KY","Jessamine"
39.784792,-98.218469,"KS","Jewell"
27.071318,-98.686327,"TX","Jim Hogg"
27.703829,-98.055296,"TX","Jim Wells"
42.454161,-90.118471,"IL","Jo Daviess"
35.473886,-93.516564,"AR","Johnson"
32.698954,-82.525306,"GA","Johnson"
41.555704,-91.530842,"IA","Johnson"
37.335571,-88.909205,"IL","Johnson"
39.489652,-86.102271,"IN","Johnson"
38.946156,-94.97143,"KS","Johnson"
37.822653,-82.694671,"KY","Johnson"
38.77934,-93.928302,"MO","Johnson"
40.510888,-96.161196,"NE","Johnson"
36.362685,-81.919401,"TN","Johnson"
32.421034,-97.196279,"TX","Johnson"
43.720933,-106.541709,"WY","Johnson"
35.40709,-78.402967,"NC","Johnston"
34.310191,-96.670349,"OK","Johnston"
32.991607,-83.567362,"GA","Jones"
42.10352,-91.240145,"IA","Jones"
31.455471,-89.302042,"MS","Jones"
35.005079,-77.523102,"NC","Jones"
43.938049,-100.701672,"SD","Jones"
32.765623,-99.854766,"TX","Jones"
42.652236,-123.425008,"OR","Josephine"
39.941737,-112.174424,"UT","Juab"
47.258941,-110.494703,"MT","Judith Basin"
43.82702,-90.10446,"WI","Juneau"
40.478716,-77.345514,"PA","Juniata"
42.261596,-85.510095,"MI","Kalamazoo"
44.697144,-85.092905,"MI","Kalkaska"
45.918782,-93.297792,"MN","Kanabec"
38.243675,-81.771226,"WV","Kanawha"
45.147104,-94.977723,"MN","Kandiyohi"
42.045792,-88.539027,"IL","Kane"
37.438637,-112.482285,"UT","Kane"
41.111151,-87.874618,"IL","Kankakee"
28.944864,-97.882815,"TX","Karnes"
32.661312,-96.444347,"TX","Kaufman"
36.736868,-97.18908,"OK","Kay"
40.50339,-99.091654,"NE","Kearney"
37.964591,-101.190998,"KS","Kearny"
41.135819,-101.921709,"NE","Keith"
32.799065,-88.698657,"MS","Kemper"
41.698414,-88.427873,"IL","Kendall"
29.897947,-98.564153,"TX","Kendall"
27.116964,-97.612449,"TX","Kenedy"
44.349166,-69.870181,"ME","Kennebec"
42.58098,-87.662878,"WI","Kenosha"
39.156376,-75.49549,"DE","Kent"
39.366812,-76.067079,"MD","Kent"
42.963833,-85.482266,"MI","Kent"
41.694251,-71.636786,"RI","Kent"
33.336305,-100.774317,"TX","Kent"
39.05906,-84.542748,"KY","Kenton"
41.480854,-92.371164,"IA","Keokuk"
35.311064,-118.659604,"CA","Kern"
29.931026,-99.067431,"TX","Kerr"
34.436891,-80.532238,"SC","Kershaw"
44.596017,-87.540266,"WI","Kewaunee"
47.287939,-88.412893,"MI","Keweenaw"
42.858168,-99.726221,"NE","Keya Paha"
46.806728,-99.772396,"ND","Kidder"
41.232626,-103.891757,"NE","Kimball"
30.49687,-99.776055,"TX","Kimble"
33.616572,-100.254835,"TX","King"
47.465495,-121.821908,"WA","King"
37.701823,-76.916248,"VA","King And Queen"
38.326218,-77.039825,"VA","King George"
37.798833,-77.180912,"VA","King William"
35.818432,-97.699679,"OK","Kingfisher"
37.630922,-98.35639,"KS","Kingman"
36.316529,-119.704594,"CA","Kings"
40.694481,-73.989319,"NY","Kings"
44.245942,-97.32031,"SD","Kingsbury"
29.299888,-100.421055,"TX","Kinney"
38.430393,-103.366655,"CO","Kiowa"
37.607534,-99.204968,"KS","Kiowa"
35.069516,-98.875945,"OK","Kiowa"
39.293345,-102.433217,"CO","Kit Carson"
47.680763,-122.576199,"WA","Kitsap"
47.156558,-120.806926,"WA","Kittitas"
48.771938,-96.812921,"MN","Kittson"
43.51799,-121.949514,"OR","Klamath"
27.422876,-97.84068,"TX","Kleberg"
45.850437,-121.312852,"WA","Klickitat"
37.318236,-83.068963,"KY","Knott"
40.964613,-90.213654,"IL","Knox"
38.741286,-87.346192,"IN","Knox"
36.936999,-83.933848,"KY","Knox"
44.010424,-69.231179,"ME","Knox"
40.126767,-92.147994,"MO","Knox"
42.628731,-97.659606,"NE","Knox"
40.29623,-82.27362,"OH","Knox"
36.029286,-83.817508,"TN","Knox"
33.514168,-99.572744,"TX","Knox"
48.091615,-93.81606,"MN","Koochiching"
47.922361,-116.686007,"ID","Kootenai"
41.254035,-85.969708,"IN","Kosciusko"
43.366038,-94.10309,"IA","Kossuth"
43.85456,-91.132072,"WI","La Crosse"
33.95782,-114.003634,"AZ","La Paz"
37.292065,-107.736318,"CO","La Plata"
41.378592,-86.788687,"IN","La Porte"
41.172532,-88.663755,"IL","La Salle"
31.60603,-92.140733,"LA","La Salle"
28.338951,-99.098369,"TX","La Salle"
37.222616,-95.360819,"KS","Labette"
45.053253,-96.095554,"MN","Lac Qui Parle"
41.487598,-75.533403,"PA","Lackawanna"
37.769908,-92.74866,"MO","Laclede"
33.202695,-93.556966,"AR","Lafayette"
30.041449,-83.123055,"FL","Lafayette"
30.232955,-92.066574,"LA","Lafayette"
39.105644,-93.590916,"MO","Lafayette"
34.471941,-89.447507,"MS","Lafayette"
42.690143,-89.922697,"WI","Lafayette"
29.640426,-90.599039,"LA","Lafourche"
41.67572,-85.567362,"IN","Lagrange"
38.946476,-122.657017,"CA","Lake"
39.225758,-106.311697,"CO","Lake"
29.174011,-81.575044,"FL","Lake"
42.451419,-88.075733,"IL","Lake"
41.311861,-87.41665,"IN","Lake"
43.929225,-85.840774,"MI","Lake"
47.256021,-91.356586,"MN","Lake"
47.220055,-114.024625,"MT","Lake"
41.742693,-81.282125,"OH","Lake"
42.805272,-120.355294,"OR","Lake"
43.895505,-96.928024,"SD","Lake"
36.344296,-89.522851,"TN","Lake"
48.750473,-94.84626,"MN","Lake Of The Woods"
33.950211,-88.018981,"AL","Lamar"
33.07577,-84.145706,"GA","Lamar"
31.100426,-89.503417,"MS","Lamar"
33.65973,-95.582906,"TX","Lamar"
34.237177,-102.36276,"TX","Lamb"
44.724842,-72.701554,"VT","Lamoille"
46.362715,-98.473702,"ND","Lamoure"
31.107716,-97.957926,"TX","Lampasas"
40.664491,-96.518083,"NE","Lancaster"
40.150963,-76.61028,"PA","Lancaster"
34.588803,-80.718482,"SC","Lancaster"
37.667319,-76.404996,"VA","Lancaster"
40.046976,-117.19669,"NV","Lander"
38.474188,-100.464651,"KS","Lane"
44.117868,-123.074193,"OR","Lane"
45.160809,-89.093942,"WI","Langlade"
31.035327,-83.098737,"GA","Lanier"
42.934027,-83.052481,"MI","Lapeer"
41.25173,-104.56264,"WY","Laramie"
40.628112,-105.569245,"CO","Larimer"
37.485493,-85.626798,"KY","Larue"
37.381577,-104.653809,"CO","Las Animas"
41.131506,-121.128616,"CA","Lassen"
46.582376,-116.739999,"ID","Latah"
34.869457,-95.221099,"OK","Latimer"
34.942388,-87.273375,"AL","Lauderdale"
32.381605,-88.663489,"MS","Lauderdale"
35.792984,-89.646955,"TN","Lauderdale"
37.152074,-84.140847,"KY","Laurel"
32.50631,-82.713743,"GA","Laurens"
34.43492,-81.893558,"SC","Laurens"
29.418431,-96.93942,"TX","Lavaca"
34.673954,-87.28962,"AL","Lawrence"
35.952057,-91.030074,"AR","Lawrence"
38.710336,-87.703639,"IL","Lawrence"
38.839482,-86.47943,"IN","Lawrence"
38.074113,-82.744663,"KY","Lawrence"
37.005666,-93.790376,"MO","Lawrence"
31.71093,-90.038237,"MS","Lawrence"
38.482955,-82.450548,"OH","Lawrence"
40.964516,-80.300736,"PA","Lawrence"
44.36485,-103.735731,"SD","Lawrence"
35.339549,-87.307286,"TN","Lawrence"
35.025939,-94.618339,"OK","Le Flore"
44.298188,-93.817622,"MN","Le Sueur"
32.690034,-103.209405,"NM","Lea"
32.785217,-89.524057,"MS","Leake"
39.133448,-94.947234,"KS","Leavenworth"
40.352637,-76.435873,"PA","Lebanon"
32.621147,-85.392878,"AL","Lee"
34.719477,-90.89691,"AR","Lee"
26.564355,-81.925065,"FL","Lee"
31.763715,-84.160359,"GA","Lee"
40.546499,-91.585217,"IA","Lee"
41.784398,-88.97506,"IL","Lee"
37.599904,-83.714013,"KY","Lee"
34.291889,-88.683828,"MS","Lee"
35.467567,-79.165314,"NC","Lee"
34.207324,-80.306569,"SC","Lee"
30.277104,-96.892115,"TX","Lee"
36.743491,-83.22336,"VA","Lee"
44.860517,-85.813768,"MI","Leelanau"
33.550408,-90.224856,"MS","Leflore"
40.514472,-75.602941,"PA","Lehigh"
44.968059,-113.816735,"ID","Lemhi"
41.985346,-84.314543,"MI","Lenawee"
35.220079,-77.615508,"NC","Lenoir"
30.418514,-84.203379,"FL","Leon"
31.412142,-95.990369,"TX","Leon"
37.011357,-83.4553,"KY","Leslie"
37.043638,-82.809267,"KY","Letcher"
29.431045,-82.549823,"FL","Levy"
46.269379,-116.539248,"ID","Lewis"
38.602881,-83.361625,"KY","Lewis"
40.107512,-91.705811,"MO","Lewis"
43.818705,-75.480342,"NY","Lewis"
35.526554,-87.489057,"TN","Lewis"
46.53912,-122.100372,"WA","Lewis"
39.09078,-80.470734,"WV","Lewis"
47.444053,-112.513362,"MT","Lewis And Clark"
33.871866,-81.414643,"SC","Lexington"
37.779976,-79.443495,"VA","Lexington City"
30.419284,-84.97804,"FL","Liberty"
31.779116,-81.60385,"GA","Liberty"
48.609072,-111.731852,"MT","Liberty"
30.343114,-94.978471,"TX","Liberty"
40.100513,-82.612389,"OH","Licking"
34.764976,-87.103488,"AL","Limestone"
31.695145,-96.586919,"TX","Limestone"
34.024648,-91.626178,"AR","Lincoln"
39.316461,-103.323143,"CO","Lincoln"
33.812714,-82.453456,"GA","Lincoln"
42.888995,-114.289216,"ID","Lincoln"
39.188663,-98.044605,"KS","Lincoln"
37.43221,-84.517065,"KY","Lincoln"
32.585408,-92.611834,"LA","Lincoln"
44.258771,-69.551024,"ME","Lincoln"
44.382668,-96.1842,"MN","Lincoln"
39.121393,-90.848269,"MO","Lincoln"
31.521489,-90.460786,"MS","Lincoln"
48.729135,-115.345992,"MT","Lincoln"
35.435922,-81.33848,"NC","Lincoln"
41.102555,-100.74907,"NE","Lincoln"
33.641799,-105.875816,"NM","Lincoln"
37.472491,-115.143709,"NV","Lincoln"
35.708886,-96.766992,"OK","Lincoln"
44.832205,-124.050272,"OR","Lincoln"
43.29831,-96.70718,"SD","Lincoln"
35.285712,-86.639625,"TN","Lincoln"
47.60894,-118.399551,"WA","Lincoln"
45.38097,-89.607232,"WI","Lincoln"
38.167112,-81.968862,"WV","Lincoln"
42.368433,-110.514132,"WY","Lincoln"
42.157086,-91.645825,"IA","Linn"
38.089756,-95.007693,"KS","Linn"
39.897218,-92.983838,"MO","Linn"
44.594489,-122.581676,"OR","Linn"
36.448291,-100.330411,"TX","Lipscomb"
42.001585,-73.295891,"CT","Litchfield"
33.778125,-94.270165,"AR","Little River"
28.302094,-98.104154,"TX","Live Oak"
41.059551,-88.417086,"IL","Livingston"
37.155977,-88.339599,"KY","Livingston"
30.342352,-90.685853,"LA","Livingston"
42.546402,-83.877776,"MI","Livingston"
39.795225,-93.588876,"MO","Livingston"
42.895631,-77.735104,"NY","Livingston"
30.70395,-98.657239,"TX","Llano"
35.130561,-93.749342,"AR","Logan"
40.525066,-103.197305,"CO","Logan"
40.233769,-89.257602,"IL","Logan"
39.046409,-101.063728,"KS","Logan"
36.772851,-86.860422,"KY","Logan"
46.37014,-99.173337,"ND","Logan"
41.480166,-100.512463,"NE","Logan"
40.491005,-83.752068,"OH","Logan"
35.950214,-97.291688,"OK","Logan"
37.833204,-81.902401,"WV","Logan"
31.780996,-81.773916,"GA","Long"
34.980269,-91.979545,"AR","Lonoke"
41.361746,-82.253828,"OH","Lorain"
35.849514,-106.288482,"NM","Los Alamos"
33.973951,-118.248405,"CA","Los Angeles"
35.674723,-84.189652,"TN","Loudon"
39.002125,-77.442066,"VA","Loudoun"
41.135562,-91.291067,"IA","Louisa"
37.90754,-77.798047,"VA","Louisa"
41.91406,-99.454335,"NE","Loup"
33.925982,-97.310324,"OK","Love"
31.825466,-103.65528,"TX","Loving"
32.01285,-86.608238,"AL","Lowndes"
30.753904,-83.332068,"GA","Lowndes"
33.516258,-88.461318,"MS","Lowndes"
33.593715,-101.814803,"TX","Lubbock"
41.046868,-93.309464,"IA","Lucas"
41.645699,-83.620233,"OH","Lucas"
46.347592,-85.658525,"MI","Luce"
34.541371,-84.024387,"GA","Lumpkin"
32.221057,-107.588344,"NM","Luna"
36.918641,-78.052391,"VA","Lunenburg"
40.964584,-76.008333,"PA","Luzerne"
41.266716,-76.958314,"PA","Lycoming"
43.797502,-99.394735,"SD","Lyman"
37.383112,-79.178326,"VA","Lynchburg City"
32.977027,-101.937148,"TX","Lynn"
43.352717,-96.311777,"IA","Lyon"
38.434153,-96.152766,"KS","Lyon"
37.044697,-88.024871,"KY","Lyon"
44.261464,-95.889647,"MN","Lyon"
39.103007,-119.482264,"NV","Lyon"
46.007211,-84.276199,"MI","Mackinac"
42.850051,-82.894993,"MI","Macomb"
32.250651,-85.752417,"AL","Macon"
32.372937,-84.212159,"GA","Macon"
40.037523,-88.961338,"IL","Macon"
39.742779,-92.327977,"MO","Macon"
35.155829,-83.422421,"NC","Macon"
36.52772,-86.025585,"TN","Macon"
39.120709,-89.940021,"IL","Macoupin"
37.379045,-119.736326,"CA","Madera"
34.719303,-86.475425,"AL","Madison"
36.033601,-93.704255,"AR","Madison"
30.498591,-83.361506,"FL","Madison"
34.05918,-83.099349,"GA","Madison"
41.334078,-94.015337,"IA","Madison"
43.79132,-111.771375,"ID","Madison"
38.882109,-89.739366,"IL","Madison"
40.213154,-85.680698,"IN","Madison"
37.717603,-84.14483,"KY","Madison"
32.341594,-91.216458,"LA","Madison"
37.490565,-90.336244,"MO","Madison"
32.785348,-89.869807,"MS","Madison"
45.193898,-112.056807,"MT","Madison"
35.808232,-82.752619,"NC","Madison"
41.99641,-97.601189,"NE","Madison"
43.005767,-75.798607,"NY","Madison"
40.057901,-83.307323,"OH","Madison"
35.570424,-88.862742,"TN","Madison"
31.009503,-95.772458,"TX","Madison"
38.428509,-78.267848,"VA","Madison"
37.690636,-83.074592,"KY","Magoffin"
41.46974,-92.487177,"IA","Mahaska"
47.325198,-95.80918,"MN","Mahnomen"
41.034545,-80.928626,"OH","Mahoning"
36.246582,-98.185445,"OK","Major"
43.785214,-117.368446,"OR","Malheur"
38.744685,-77.487162,"VA","Manassas City"
38.770741,-77.449443,"VA","Manassas Park City"
27.404731,-82.470456,"FL","Manatee"
44.478837,-86.209391,"MI","Manistee"
43.935653,-87.80346,"WI","Manitowoc"
44.961874,-89.794002,"WI","Marathon"
32.384949,-87.824556,"AL","Marengo"
33.703967,-112.351835,"AZ","Maricopa"
38.204321,-91.756633,"MO","Maries"
37.970948,-122.504286,"CA","Marin"
45.492839,-88.049604,"WI","Marinette"
34.16493,-87.739592,"AL","Marion"
36.318875,-92.629141,"AR","Marion"
29.060711,-81.969048,"FL","Marion"
32.254152,-84.489818,"GA","Marion"
41.211897,-93.054149,"IA","Marion"
38.63831,-88.957758,"IL","Marion"
39.713893,-86.093293,"IN","Marion"
38.089221,-96.888518,"KS","Marion"
37.504057,-85.107213,"KY","Marion"
39.736986,-91.45683,"MO","Marion"
31.218188,-89.801872,"MS","Marion"
40.616604,-83.069296,"OH","Marion"
45.224241,-122.8198,"OR","Marion"
34.026958,-79.353715,"SC","Marion"
35.029115,-85.517231,"TN","Marion"
32.795866,-94.28917,"TX","Marion"
39.494115,-80.221282,"WV","Marion"
37.51165,-119.652872,"CA","Mariposa"
34.598755,-79.707693,"SC","Marlboro"
46.770788,-87.672566,"MI","Marquette"
43.7076,-89.551629,"WI","Marquette"
34.393855,-86.365403,"AL","Marshall"
42.143933,-92.961868,"IA","Marshall"
41.006568,-89.134078,"IL","Marshall"
41.242669,-86.248052,"IN","Marshall"
39.885826,-96.295457,"KS","Marshall"
36.888765,-88.305502,"KY","Marshall"
48.191085,-96.998433,"MN","Marshall"
34.848108,-89.617691,"MS","Marshall"
33.974518,-96.698204,"OK","Marshall"
45.631054,-97.40057,"SD","Marshall"
35.431968,-86.762712,"TN","Marshall"
39.955349,-80.710507,"WV","Marshall"
27.050934,-80.158594,"FL","Martin"
38.894879,-86.900174,"IN","Martin"
37.761149,-82.622288,"KY","Martin"
43.674049,-94.51078,"MN","Martin"
35.866711,-77.084958,"NC","Martin"
32.258885,-101.844195,"TX","Martin"
36.681298,-79.86626,"VA","Martinsville City"
40.305929,-89.8716,"IL","Mason"
38.707093,-83.904101,"KY","Mason"
43.932434,-86.177683,"MI","Mason"
30.720372,-99.100089,"TX","Mason"
47.322429,-122.984003,"WA","Mason"
38.752312,-81.997278,"WV","Mason"
37.212897,-88.605104,"IL","Massac"
28.798156,-95.651058,"TX","Matagorda"
37.410286,-76.294103,"VA","Mathews"
35.712381,-86.901661,"TN","Maury"
28.781057,-100.312766,"TX","Maverick"
36.43736,-95.26975,"OK","Mayes"
35.094914,-97.527291,"OK","Mcclain"
47.24993,-105.906002,"MT","Mccone"
43.572888,-97.248418,"SD","Mccook"
33.623057,-82.132655,"SC","Mccormick"
37.031586,-88.713292,"KY","Mccracken"
36.777331,-84.502512,"KY","Mccreary"
31.150939,-99.337237,"TX","Mcculloch"
34.061674,-94.808868,"OK","Mccurtain"
36.666988,-94.419201,"MO","Mcdonald"
40.387329,-90.506582,"IL","Mcdonough"
35.738725,-82.059494,"NC","Mcdowell"
37.411086,-81.539352,"WV","Mcdowell"
33.527993,-82.5104,"GA","Mcduffie"
42.324761,-88.452481,"IL","Mchenry"
47.926998,-100.284856,"ND","Mchenry"
31.495071,-81.381908,"GA","Mcintosh"
46.056209,-99.285013,"ND","Mcintosh"
35.492196,-95.517816,"OK","Mcintosh"
41.742791,-78.78726,"PA","Mckean"
47.737435,-103.298383,"ND","Mckenzie"
35.344949,-108.101102,"NM","Mckinley"
40.462041,-88.850396,"IL","Mclean"
37.615062,-87.406866,"KY","Mclean"
47.581047,-101.143206,"ND","Mclean"
31.308813,-97.277397,"TX","Mclennan"
44.758102,-94.251718,"MN","Mcleod"
35.457491,-84.63982,"TN","Mcminn"
28.350458,-98.56876,"TX","Mcmullen"
35.271057,-88.447528,"TN","Mcnairy"
38.217149,-97.523327,"KS","Mcpherson"
41.568548,-101.059489,"NE","Mcpherson"
45.77074,-99.330778,"SD","Mcpherson"
37.279983,-100.211034,"KS","Meade"
38.093864,-86.345301,"KY","Meade"
45.024533,-102.026734,"SD","Meade"
46.619039,-110.845396,"MT","Meagher"
35.473286,-80.872585,"NC","Mecklenburg"
36.70774,-78.281204,"VA","Mecklenburg"
43.737488,-85.166327,"MI","Mecosta"
41.206132,-81.82281,"OH","Medina"
29.364948,-98.909219,"TX","Medina"
45.070558,-94.420292,"MN","Meeker"
39.085629,-81.921443,"OH","Meigs"
35.484053,-84.84546,"TN","Meigs"
43.623523,-100.721218,"SD","Mellette"
39.950205,-89.683294,"IL","Menard"
30.931395,-99.827483,"TX","Menard"
39.168027,-123.393401,"CA","Mendocino"
37.938651,-83.605538,"KY","Menifee"
45.601899,-87.519075,"MI","Menominee"
44.88646,-88.575133,"WI","Menominee"
37.073301,-120.623363,"CA","Merced"
41.197762,-90.730944,"IL","Mercer"
37.754839,-84.74994,"KY","Mercer"
40.422119,-93.570687,"MO","Mercer"
47.277895,-101.853161,"ND","Mercer"
40.281558,-74.572449,"NJ","Mercer"
40.354106,-84.643532,"OH","Mercer"
41.286567,-80.423727,"PA","Mercer"
37.332725,-81.160066,"WV","Mercer"
33.06913,-84.613189,"GA","Meriwether"
41.202853,-97.80937,"NE","Merrick"
43.065097,-71.443616,"NH","Merrimack"
39.069019,-108.583126,"CO","Mesa"
36.857666,-85.649583,"KY","Metcalfe"
40.650476,-85.943552,"IN","Miami"
38.676056,-94.685052,"KS","Miami"
40.115737,-84.279352,"OH","Miami"
25.558428,-80.458168,"FL","Miami-Dade"
41.349098,-72.41338,"CT","Middlesex"
42.446396,-71.459405,"MA","Middlesex"
40.582845,-74.27524,"NJ","Middlesex"
37.598391,-76.447551,"VA","Middlesex"
43.720284,-84.52035,"MI","Midland"
31.861876,-102.091276,"TX","Midland"
40.539667,-77.790168,"PA","Mifflin"
30.868537,-97.055021,"TX","Milam"
39.247056,-112.526542,"UT","Millard"
45.740703,-93.63663,"MN","Mille Lacs"
33.441724,-94.023737,"AR","Miller"
31.16251,-84.713359,"GA","Miller"
38.187229,-92.499823,"MO","Miller"
41.016355,-95.422695,"IA","Mills"
31.447214,-98.458794,"TX","Mills"
42.948015,-87.866831,"WI","Milwaukee"
43.892123,-97.540053,"SD","Miner"
37.761293,-106.981852,"CO","Mineral"
46.989275,-114.558456,"MT","Mineral"
38.576848,-118.690644,"NV","Mineral"
39.443055,-78.964749,"WV","Mineral"
37.743063,-82.10801,"WV","Mingo"
42.564732,-113.809824,"ID","Minidoka"
43.64514,-96.814589,"SD","Minnehaha"
44.242162,-85.043655,"MI","Missaukee"
35.852046,-89.972762,"AR","Mississippi"
36.822596,-89.346154,"MO","Mississippi"
46.853606,-113.909123,"MT","Missoula"
31.358861,-84.100301,"GA","Mitchell"
43.414935,-93.002846,"IA","Mitchell"
39.441631,-98.119189,"KS","Mitchell"
36.038317,-82.205783,"NC","Mitchell"
32.340912,-100.900564,"TX","Mitchell"
30.939368,-88.015868,"AL","Mobile"
41.236677,-120.932949,"CA","Modoc"
40.36715,-108.277407,"CO","Moffat"
35.74782,-113.8106,"AZ","Mohave"
38.625055,-92.550973,"MO","Moniteau"
40.358409,-74.068143,"NJ","Monmouth"
37.496842,-118.624903,"CA","Mono"
42.080842,-95.903339,"IA","Monona"
39.609911,-79.983141,"WV","Monongalia"
31.56779,-87.250028,"AL","Monroe"
34.883421,-91.194574,"AR","Monroe"
24.83059,-80.804872,"FL","Monroe"
32.946971,-83.800628,"GA","Monroe"
41.028469,-92.976822,"IA","Monroe"
38.409442,-90.16382,"IL","Monroe"
39.07881,-86.435094,"IN","Monroe"
36.726089,-85.846991,"KY","Monroe"
42.008164,-83.664277,"MI","Monroe"
39.624018,-91.762318,"MO","Monroe"
33.942639,-88.411284,"MS","Monroe"
43.195261,-77.855883,"NY","Monroe"
39.780188,-80.991731,"OH","Monroe"
40.903599,-75.476885,"PA","Monroe"
35.246689,-84.303121,"TN","Monroe"
43.851133,-90.699047,"WI","Monroe"
37.552029,-80.539672,"WV","Monroe"
33.530011,-97.856849,"TX","Montague"
43.279958,-85.05493,"MI","Montcalm"
35.907585,-120.937371,"CA","Monterey"
37.373594,-108.662826,"CO","Montezuma"
32.310624,-86.186132,"AL","Montgomery"
34.392489,-93.683883,"AR","Montgomery"
32.17966,-82.516557,"GA","Montgomery"
41.142675,-94.984159,"IA","Montgomery"
39.210135,-89.532057,"IL","Montgomery"
39.962271,-87.050635,"IN","Montgomery"
37.180636,-95.756197,"KS","Montgomery"
38.016064,-83.771261,"KY","Montgomery"
38.96851,-77.140801,"MD","Montgomery"
39.03433,-91.33188,"MO","Montgomery"
33.563223,-89.641871,"MS","Montgomery"
35.365836,-79.943839,"NC","Montgomery"
42.906298,-74.229042,"NY","Montgomery"
39.836157,-84.330392,"OH","Montgomery"
40.382488,-75.51541,"PA","Montgomery"
36.51674,-87.308491,"TN","Montgomery"
30.310041,-95.51232,"TX","Montgomery"
37.210663,-80.406172,"VA","Montgomery"
45.030626,-84.173067,"MI","Montmorency"
40.991968,-76.647082,"PA","Montour"
38.416326,-107.529303,"CO","Montrose"
43.984778,-96.814237,"SD","Moody"
35.326471,-79.548614,"NC","Moore"
35.282767,-86.305403,"TN","Moore"
36.041191,-102.00075,"TX","Moore"
36.008302,-105.023886,"NM","Mora"
32.795041,-91.873723,"LA","Morehouse"
34.549833,-86.995551,"AL","Morgan"
40.414728,-104.081667,"CO","Morgan"
33.754235,-83.511055,"GA","Morgan"
39.751657,-90.045839,"IL","Morgan"
39.539599,-86.370057,"IN","Morgan"
37.914002,-83.233761,"KY","Morgan"
38.373142,-92.715162,"MO","Morgan"
39.497841,-81.898307,"OH","Morgan"
36.035211,-84.390727,"TN","Morgan"
41.090456,-111.486959,"UT","Morgan"
39.552557,-78.18773,"WV","Morgan"
41.598622,-102.852752,"NE","Morrill"
38.565758,-96.801336,"KS","Morris"
40.918648,-74.430696,"NJ","Morris"
33.164839,-94.686156,"TX","Morris"
45.868809,-94.422896,"MN","Morrison"
40.479648,-82.852969,"OH","Morrow"
45.419841,-119.6575,"OR","Morrow"
37.00405,-101.896973,"KS","Morton"
46.720185,-101.498156,"ND","Morton"
34.073908,-100.779551,"TX","Motley"
39.638,-88.75367,"IL","Moultrie"
47.971759,-102.471636,"ND","Mountrail"
43.565168,-92.74389,"MN","Mower"
37.153324,-87.024457,"KY","Muhlenberg"
45.582981,-122.101103,"OR","Multnomah"
34.785543,-84.771623,"GA","Murray"
43.960084,-95.60317,"MN","Murray"
34.501771,-97.047346,"OK","Murray"
41.475075,-91.16406,"IA","Muscatine"
32.563874,-84.991501,"GA","Muscogee"
43.272182,-85.854471,"MI","Muskegon"
39.927415,-82.004058,"OH","Muskingum"
35.70582,-95.50025,"OK","Muskogee"
46.598623,-107.869188,"MT","Musselshell"
31.714047,-94.841773,"TX","Nacogdoches"
41.471865,-98.068163,"NE","Nance"
41.287647,-70.08665,"MA","Nantucket"
38.57145,-122.450215,"CA","Napa"
35.902088,-77.874947,"NC","Nash"
30.521109,-81.906051,"FL","Nassau"
40.720051,-73.706783,"NY","Nassau"
32.137843,-93.090606,"LA","Natchitoches"
42.859875,-106.312561,"WY","Natrona"
34.570811,-110.032025,"AZ","Navajo"
32.036797,-96.666279,"TX","Navarro"
37.822585,-85.466944,"KY","Nelson"
47.766493,-98.043481,"ND","Nelson"
37.972758,-78.82231,"VA","Nelson"
39.753031,-96.108737,"KS","Nemaha"
40.428801,-95.843077,"NE","Nemaha"
37.609218,-95.416422,"KS","Neosho"
32.754387,-89.116797,"MS","Neshoba"
38.479822,-99.916519,"KS","Ness"
33.70082,-93.294126,"AR","Nevada"
39.167276,-120.964275,"CA","Nevada"
39.594736,-75.693903,"DE","New Castle"
34.163503,-77.95481,"NC","New Hanover"
41.342514,-73.070301,"CT","New Haven"
37.479524,-76.949981,"VA","New Kent"
41.628008,-72.245422,"CT","New London"
36.685031,-89.748273,"MO","New Madrid"
40.750422,-73.996328,"NY","New York"
43.712217,-85.860379,"MI","Newaygo"
34.221772,-81.872428,"SC","Newberry"
41.530131,-71.284066,"RI","Newport"
37.058296,-76.463471,"VA","Newport News City"
35.924868,-93.232298,"AR","Newton"
33.529341,-83.849622,"GA","Newton"
41.108242,-87.418963,"IN","Newton"
36.930776,-94.248796,"MO","Newton"
32.477116,-89.26359,"MS","Newton"
30.714636,-93.709628,"TX","Newton"
46.3646,-116.860852,"ID","Nez Perce"
43.291696,-78.626944,"NY","Niagara"
38.334059,-83.994865,"KY","Nicholas"
38.254945,-81.217588,"WV","Nicholas"
44.217193,-94.094192,"MN","Nicollet"
43.152195,-104.59198,"WY","Niobrara"
41.376028,-85.413862,"IN","Noble"
39.827556,-81.554854,"OH","Noble"
36.288043,-97.029796,"OK","Noble"
43.620754,-95.953225,"MN","Nobles"
40.266817,-94.858117,"MO","Nodaway"
32.175814,-100.289569,"TX","Nolan"
42.076501,-71.470464,"MA","Norfolk"
36.895911,-76.208521,"VA","Norfolk City"
47.325283,-96.597259,"MN","Norman"
36.450554,-77.452452,"NC","Northampton"
40.693376,-75.471156,"PA","Northampton"
37.432247,-75.880425,"VA","Northampton"
40.894363,-76.596151,"PA","Northumberland"
37.837435,-76.345493,"VA","Northumberland"
39.891272,-99.711523,"KS","Norton"
36.93767,-82.622624,"VA","Norton City"
37.12237,-77.978923,"VA","Nottoway"
36.777208,-95.641981,"OK","Nowata"
33.125769,-88.54474,"MS","Noxubee"
40.074907,-97.900651,"NE","Nuckolls"
27.836111,-97.530388,"TX","Nueces"
36.819857,-116.609372,"NV","Nye"
42.606088,-83.297593,"MI","Oakland"
36.35288,-89.333345,"TN","Obion"
42.9552,-95.570082,"IA","Obrien"
39.753858,-74.293989,"NJ","Ocean"
43.700968,-86.334122,"MI","Oceana"
36.391123,-100.761225,"TX","Ochiltree"
33.805718,-83.48171,"GA","Oconee"
34.542683,-83.029707,"SC","Oconee"
44.792284,-88.044067,"WI","Oconto"
44.324353,-84.162443,"MI","Ogemaw"
41.931158,-88.956564,"IL","Ogle"
33.888662,-83.222254,"GA","Oglethorpe"
38.958134,-84.984085,"IN","Ohio"
37.355569,-86.864676,"KY","Ohio"
40.102703,-80.647599,"WV","Ohio"
30.85525,-86.674139,"FL","Okaloosa"
48.365236,-119.829391,"WA","Okanogan"
27.420316,-80.945361,"FL","Okeechobee"
35.513491,-96.495334,"OK","Okfuskee"
35.674777,-97.499681,"OK","Oklahoma"
35.737125,-96.026538,"OK","Okmulgee"
33.42554,-88.879117,"MS","Oktibbeha"
38.389195,-85.44584,"KY","Oldham"
35.40527,-102.602749,"TX","Oldham"
47.145874,-101.159363,"ND","Oliver"
44.075285,-92.516916,"MN","Olmsted"
42.234859,-112.599201,"ID","Oneida"
43.14548,-75.559605,"NY","Oneida"
45.525897,-89.236033,"WI","Oneida"
42.823968,-76.062425,"NY","Onondaga"
34.527983,-77.514707,"NC","Onslow"
42.813576,-77.289687,"NY","Ontario"
46.585302,-89.517464,"MI","Ontonagon"
33.640302,-117.769442,"CA","Orange"
28.635425,-81.488843,"FL","Orange"
38.486914,-86.587861,"IN","Orange"
36.181138,-79.164741,"NC","Orange"
41.386195,-74.125718,"NY","Orange"
30.019163,-93.832632,"TX","Orange"
38.344608,-77.871855,"VA","Orange"
44.004691,-72.15845,"VT","Orange"
33.341855,-80.565482,"SC","Orangeburg"
36.692896,-91.397129,"MO","Oregon"
29.958304,-90.077,"LA","Orleans"
43.324031,-78.367151,"NY","Orleans"
44.741679,-72.364639,"VT","Orleans"
38.73799,-95.815754,"KS","Osage"
38.498027,-91.918023,"MO","Osage"
36.490056,-96.061608,"OK","Osage"
39.449456,-98.581432,"KS","Osborne"
28.263489,-81.512387,"FL","Osceola"
43.309073,-95.772984,"IA","Osceola"
43.958084,-85.302063,"MI","Osceola"
44.756363,-84.046449,"MI","Oscoda"
43.310494,-76.135765,"NY","Oswego"
38.102941,-103.5367,"CO","Otero"
32.870046,-105.948967,"NM","Otero"
40.536353,-96.299662,"NE","Otoe"
45.02396,-84.755439,"MI","Otsego"
42.632058,-74.667368,"NY","Otsego"
39.019928,-97.622108,"KS","Ottawa"
42.979522,-85.93927,"MI","Ottawa"
41.568599,-83.363224,"OH","Ottawa"
36.82215,-94.916222,"OK","Ottawa"
46.172907,-95.918542,"MN","Otter Tail"
33.594817,-92.851335,"AR","Ouachita"
32.502833,-92.094583,"LA","Ouachita"
38.087654,-107.728712,"CO","Ouray"
44.470235,-88.454719,"WI","Outagamie"
36.481086,-85.346687,"TN","Overton"
39.319527,-86.842743,"IN","Owen"
38.627652,-84.87562,"KY","Owen"
37.496523,-83.657351,"KY","Owsley"
42.613957,-115.841917,"ID","Owyhee"
44.163033,-70.739823,"ME","Oxford"
36.52365,-92.144958,"MO","Ozark"
43.499631,-87.918042,"WI","Ozaukee"
46.637057,-123.884996,"WA","Pacific"
40.718258,-95.16372,"IA","Page"
38.763022,-78.387191,"VA","Page"
26.672643,-80.070613,"FL","Palm Beach"
43.01825,-94.855316,"IA","Palo Alto"
32.800128,-98.24943,"TX","Palo Pinto"
35.156145,-76.632264,"NC","Pamlico"
34.343102,-89.956497,"MS","Panola"
32.233362,-94.456952,"TX","Panola"
39.297972,-106.063548,"CO","Park"
45.834082,-110.622234,"MT","Park"
44.795733,-110.613731,"WY","Park"
39.779078,-87.221819,"IN","Parke"
32.681918,-97.779522,"TX","Parker"
34.519042,-102.784639,"TX","Parmer"
28.36886,-82.322756,"FL","Pasco"
36.285388,-76.213284,"NC","Pasquotank"
40.877949,-74.141237,"NJ","Passaic"
36.612434,-80.504446,"VA","Patrick"
33.935396,-84.866654,"GA","Paulding"
41.186851,-84.727141,"OH","Paulding"
38.13957,-99.385256,"KS","Pawnee"
40.146335,-96.348151,"NE","Pawnee"
36.263766,-96.443319,"OK","Pawnee"
43.974615,-116.900775,"ID","Payette"
36.029294,-96.855949,"OK","Payne"
32.618051,-83.788976,"GA","Peach"
30.661121,-89.646536,"MS","Pearl River"
30.711984,-102.676783,"TX","Pecos"
48.874863,-97.42543,"ND","Pembina"
36.178122,-89.671646,"MO","Pemiscot"
48.510409,-117.348383,"WA","Pend Oreille"
34.510936,-78.094517,"NC","Pender"
38.739446,-84.392841,"KY","Pendleton"
38.684692,-79.353564,"WV","Pendleton"
48.076333,-96.149002,"MN","Pennington"
44.004363,-103.240024,"SD","Pennington"
45.061744,-68.878893,"ME","Penobscot"
40.938808,-89.889949,"IL","Peoria"
44.602774,-92.062219,"WI","Pepin"
40.850739,-101.649075,"NE","Perkins"
45.409748,-102.513087,"SD","Perkins"
36.257499,-76.544379,"NC","Perquimans"
32.608995,-87.350401,"AL","Perry"
34.943809,-92.923191,"AR","Perry"
38.046458,-89.478358,"IL","Perry"
38.053876,-86.621994,"IN","Perry"
37.331259,-83.386991,"KY","Perry"
37.627908,-89.574503,"MO","Perry"
31.185365,-88.920132,"MS","Perry"
39.851267,-82.385238,"OH","Perry"
40.29736,-77.56437,"PA","Perry"
35.594367,-87.856665,"TN","Perry"
40.649475,-118.288693,"NV","Pershing"
36.493537,-79.060407,"NC","Person"
37.21713,-77.389253,"VA","Petersburg City"
47.173641,-108.281168,"MT","Petroleum"
38.703138,-93.240166,"MO","Pettis"
37.898204,-91.797641,"MO","Phelps"
40.410446,-99.405055,"NE","Phelps"
40.001811,-75.11787,"PA","Philadelphia"
34.546696,-90.767879,"AR","Phillips"
40.608363,-102.3582,"CO","Phillips"
39.760857,-99.119565,"KS","Phillips"
48.457237,-107.342553,"MT","Phillips"
39.908567,-88.599987,"IL","Piatt"
39.67194,-83.015457,"OH","Pickaway"
33.236962,-88.061517,"AL","Pickens"
34.469042,-84.428243,"GA","Pickens"
34.744649,-82.797267,"SC","Pickens"
36.552982,-85.162523,"TN","Pickett"
31.326324,-82.271206,"GA","Pierce"
48.104177,-99.992145,"ND","Pierce"
42.264356,-97.601337,"NE","Pierce"
47.156263,-122.706706,"WA","Pierce"
44.789742,-92.448434,"WI","Pierce"
31.839131,-85.928538,"AL","Pike"
34.146678,-93.653733,"AR","Pike"
33.104729,-84.456917,"GA","Pike"
39.611334,-90.894104,"IL","Pike"
38.477976,-87.128545,"IN","Pike"
37.482901,-82.447075,"KY","Pike"
39.253624,-90.814756,"MO","Pike"
31.114483,-90.487486,"MS","Pike"
39.040682,-82.887103,"OH","Pike"
41.185011,-74.97889,"PA","Pike"
31.970131,-111.890713,"AZ","Pima"
33.393398,-111.478975,"AZ","Pinal"
45.947444,-93.073628,"MN","Pine"
27.775654,-82.64092,"FL","Pinellas"
43.930332,-96.149676,"MN","Pipestone"
45.184103,-69.233382,"ME","Piscataquis"
39.169324,-106.776744,"CO","Pitkin"
35.584685,-77.513357,"NC","Pitt"
35.157132,-95.621536,"OK","Pittsburg"
36.594226,-79.616614,"VA","Pittsylvania"
38.182708,-112.232857,"UT","Piute"
39.014933,-121.07047,"CA","Placer"
29.620092,-89.771638,"LA","Plaquemines"
39.396278,-94.725832,"MO","Platte"
41.542962,-97.376314,"NE","Platte"
42.013984,-104.967405,"WY","Platte"
39.375025,-81.263875,"WV","Pleasants"
39.912222,-120.834958,"CA","Plumas"
42.822482,-96.462952,"IA","Plymouth"
41.970474,-70.701357,"MA","Plymouth"
42.646211,-94.797046,"IA","Pocahontas"
38.387966,-79.990585,"WV","Pocahontas"
35.596339,-90.340023,"AR","Poinsett"
30.829754,-91.694354,"LA","Pointe Coupee"
34.537164,-94.0972,"AR","Polk"
28.059997,-81.956122,"FL","Polk"
34.053167,-85.079865,"GA","Polk"
41.813089,-93.609929,"IA","Polk"
47.801705,-96.43368,"MN","Polk"
37.534753,-93.543226,"MO","Polk"
35.261201,-82.123534,"NC","Polk"
41.170633,-97.57,"NE","Polk"
44.99351,-123.107442,"OR","Polk"
35.130815,-84.521805,"TN","Polk"
30.817866,-94.869052,"TX","Polk"
45.348566,-92.401379,"WI","Polk"
48.065733,-111.715365,"MT","Pondera"
34.171543,-89.032791,"MS","Pontotoc"
34.748961,-96.685325,"OK","Pontotoc"
35.706942,-92.843116,"AR","Pope"
37.333591,-88.561428,"IL","Pope"
45.641425,-95.709642,"MN","Pope"
37.132326,-76.365419,"VA","Poquoson City"
41.040507,-81.194614,"OH","Portage"
44.393087,-89.335313,"WI","Portage"
41.683796,-86.975178,"IN","Porter"
36.811498,-76.367715,"VA","Portsmouth City"
38.175698,-87.711423,"IN","Posey"
39.277337,-96.164714,"KS","Pottawatomie"
35.295843,-96.960092,"OK","Pottawatomie"
41.23238,-95.875086,"IA","Pottawattamie"
41.615099,-77.957975,"PA","Potter"
45.033588,-100.035273,"SD","Potter"
35.225625,-102.029919,"TX","Potter"
45.391078,-105.630461,"MT","Powder River"
37.847517,-83.859331,"KY","Powell"
46.565725,-112.649859,"MT","Powell"
42.635233,-112.945777,"ID","Power"
41.685324,-92.630258,"IA","Poweshiek"
37.553314,-77.892964,"VA","Powhatan"
34.785525,-91.573785,"AR","Prairie"
46.860997,-105.345182,"MT","Prairie"
37.777955,-98.931119,"KS","Pratt"
39.594686,-84.54682,"OH","Preble"
34.632922,-88.533107,"MS","Prentiss"
30.351902,-104.018475,"TX","Presidio"
45.283467,-83.873719,"MI","Presque Isle"
39.48274,-79.836968,"WV","Preston"
45.451541,-90.287732,"WI","Price"
37.280694,-78.421284,"VA","Prince Edward"
37.233941,-77.334831,"VA","Prince George"
38.666071,-76.998396,"MD","Prince Georges"
38.734255,-77.547383,"VA","Prince William"
41.954098,-71.462053,"RI","Providence"
37.870309,-102.367626,"CO","Prowers"
38.344117,-104.427776,"CO","Pueblo"
34.694468,-92.425087,"AR","Pulaski"
32.275664,-83.49009,"GA","Pulaski"
37.240291,-88.995404,"IL","Pulaski"
41.124552,-86.544617,"IN","Pulaski"
37.10288,-84.544294,"KY","Pulaski"
37.944664,-92.26771,"MO","Pulaski"
37.198248,-80.615065,"VA","Pulaski"
34.418801,-95.358406,"OK","Pushmataha"
29.799631,-81.627324,"FL","Putnam"
33.320818,-83.355865,"GA","Putnam"
41.250055,-89.24284,"IL","Putnam"
39.752428,-86.812416,"IN","Putnam"
40.465883,-93.019815,"MO","Putnam"
41.415979,-73.725197,"NY","Putnam"
41.153855,-83.941281,"OH","Putnam"
36.217846,-85.542327,"TN","Putnam"
38.508559,-81.841002,"WV","Putnam"
34.753722,-103.970607,"NM","Quay"
39.073391,-76.060665,"MD","Queen Annes"
40.745263,-73.711159,"NY","Queens"
31.844937,-85.104383,"GA","Quitman"
34.235111,-90.29272,"MS","Quitman"
34.886868,-83.375358,"GA","Rabun"
42.692103,-88.228793,"WI","Racine"
37.119732,-80.556541,"VA","Radford"
32.834006,-95.724069,"TX","Rains"
37.784459,-81.118491,"WV","Raleigh"
39.508451,-91.53793,"MO","Ralls"
44.967965,-93.092168,"MN","Ramsey"
48.264352,-98.781979,"ND","Ramsey"
35.004998,-101.91008,"TX","Randall"
33.456308,-85.369167,"AL","Randolph"
36.284433,-90.853751,"AR","Randolph"
31.775195,-84.747201,"GA","Randolph"
38.155348,-89.752849,"IL","Randolph"
40.187565,-85.14558,"IN","Randolph"
39.534445,-92.470668,"MO","Randolph"
35.708376,-79.85213,"NC","Randolph"
38.89487,-79.850148,"WV","Randolph"
32.300019,-89.938693,"MS","Rankin"
46.456337,-97.777909,"ND","Ransom"
31.175885,-92.431184,"LA","Rapides"
38.6842,-78.016813,"VA","Rappahannock"
45.918972,-114.05904,"MT","Ravalli"
39.824688,-101.041371,"KS","Rawlins"
39.260591,-94.10539,"MO","Ray"
31.417011,-101.5423,"TX","Reagan"
29.669203,-100.012219,"TX","Real"
47.814152,-96.005263,"MN","Red Lake"
32.023096,-93.264819,"LA","Red River"
33.639683,-95.021683,"TX","Red River"
40.207969,-100.620628,"NE","Red Willow"
44.282403,-95.167551,"MN","Redwood"
31.383297,-103.556598,"TX","Reeves"
28.308115,-97.152097,"TX","Refugio"
37.954312,-97.88569,"KS","Reno"
42.670645,-73.55142,"NY","Rensselaer"
44.753182,-94.848215,"MN","Renville"
48.647206,-101.540749,"ND","Renville"
39.70438,-97.446521,"KS","Republic"
37.327153,-91.024337,"MO","Reynolds"
35.556414,-84.979171,"TN","Rhea"
38.463875,-98.387168,"KS","Rice"
44.398613,-93.194444,"MN","Rice"
41.907816,-111.379691,"UT","Rich"
40.132685,-95.830408,"NE","Richardson"
38.65,-88.047886,"IL","Richland"
32.409446,-91.732788,"LA","Richland"
47.711026,-104.183625,"MT","Richland"
46.447936,-96.727788,"ND","Richland"
40.646184,-82.481491,"OH","Richland"
34.126535,-81.234811,"SC","Richland"
43.234509,-90.261804,"WI","Richland"
33.359709,-82.198897,"GA","Richmond"
34.974434,-79.79851,"NC","Richmond"
40.623632,-74.093323,"NY","Richmond"
37.879797,-76.598782,"VA","Richmond"
37.524246,-77.493157,"VA","Richmond City"
39.401675,-96.848345,"KS","Riley"
40.846834,-94.088656,"IA","Ringgold"
36.230711,-107.070343,"NM","Rio Arriba"
39.967864,-108.043592,"CO","Rio Blanco"
37.644684,-106.407311,"CO","Rio Grande"
39.19017,-85.229151,"IN","Ripley"
36.66101,-90.850785,"MO","Ripley"
39.198501,-81.068913,"WV","Ritchie"
33.752886,-116.055617,"CA","Riverside"
35.919953,-84.516642,"TN","Roane"
38.591037,-81.273681,"WV","Roane"
37.250349,-80.05251,"VA","Roanoke"
37.274175,-79.95786,"VA","Roanoke City"
45.616422,-96.849416,"SD","Roberts"
35.71814,-100.676817,"TX","Roberts"
38.531698,-84.035565,"KY","Robertson"
36.556825,-87.018127,"TN","Robertson"
31.165947,-96.675985,"TX","Robertson"
34.595364,-79.197058,"NC","Robeson"
43.612344,-96.364663,"MN","Rock"
42.583147,-99.551245,"NE","Rock"
42.605454,-89.070448,"WI","Rock"
41.495083,-90.604899,"IL","Rock Island"
37.926477,-79.329162,"VA","Rockbridge"
37.373811,-84.412242,"KY","Rockcastle"
33.719178,-84.002061,"GA","Rockdale"
36.348831,-79.894851,"NC","Rockingham"
42.989151,-71.343576,"NH","Rockingham"
38.490526,-78.817876,"VA","Rockingham"
41.137295,-74.105737,"NY","Rockland"
32.886,-96.409502,"TX","Rockwall"
35.608071,-99.672542,"OK","Roger Mills"
36.212092,-95.72584,"OK","Rogers"
48.770913,-99.772702,"ND","Rolette"
39.334908,-99.39947,"KS","Rooks"
48.2088,-105.072426,"MT","Roosevelt"
33.928379,-103.274249,"NM","Roosevelt"
44.387123,-84.701346,"MI","Roscommon"
48.769244,-95.747559,"MN","Roseau"
45.605673,-106.278272,"MT","Rosebud"
39.466524,-82.754731,"OH","Ross"
40.730717,-106.913996,"CO","Routt"
38.128726,-83.442495,"KY","Rowan"
35.755719,-80.681056,"NC","Rowan"
31.770615,-99.911547,"TX","Runnels"
39.663342,-85.590869,"IN","Rush"
38.470116,-99.553222,"KS","Rush"
32.213061,-94.783436,"TX","Rusk"
45.486195,-90.847935,"WI","Rusk"
32.286092,-85.161497,"AL","Russell"
38.868931,-98.676303,"KS","Russell"
36.945046,-85.124561,"KY","Russell"
37.043978,-81.855318,"VA","Russell"
35.440832,-81.789415,"NC","Rutherford"
35.695974,-86.368041,"TN","Rutherford"
43.630346,-72.93586,"VT","Rutland"
31.794655,-93.534539,"LA","Sabine"
31.373062,-93.821948,"TX","Sabine"
42.458243,-95.16624,"IA","Sac"
38.380456,-121.555406,"CA","Sacramento"
44.023162,-69.875816,"ME","Sagadahoc"
43.27849,-83.81449,"MI","Saginaw"
37.869875,-106.046711,"CO","Saguache"
29.956803,-89.987547,"LA","Saint Bernard"
29.841219,-90.430699,"LA","Saint Charles"
38.754788,-90.613131,"MO","Saint Charles"
33.603543,-86.466833,"AL","Saint Clair"
38.439983,-89.983521,"IL","Saint Clair"
42.614984,-82.597768,"MI","Saint Clair"
38.167943,-93.882831,"MO","Saint Clair"
44.969171,-92.441061,"WI","Saint Croix"
35.08844,-90.81081,"AR","Saint Francis"
37.89192,-90.38,"MO","Saint Francois"
30.657123,-90.651536,"LA","Saint Helena"
30.048935,-90.711904,"LA","Saint James"
29.937673,-81.420603,"FL","Saint Johns"
41.839785,-85.365433,"MI","Saint Joseph"
30.474902,-91.967292,"LA","Saint Landry"
44.287829,-74.702338,"NY","Saint Lawrence"
47.256933,-92.00427,"MN","Saint Louis"
38.638318,-90.427118,"MO","Saint Louis"
38.631501,-90.19231,"MO","Saint Louis City"
27.412128,-80.534169,"FL","Saint Lucie"
30.240316,-91.828827,"LA","Saint Martin"
29.688425,-91.220844,"LA","Saint Mary"
38.247149,-76.748088,"MD","Saint Marys"
30.477483,-89.955328,"LA","Saint Tammany"
38.023217,-90.252806,"MO","Sainte Genevieve"
39.559077,-75.350573,"NJ","Salem"
37.28814,-80.067762,"VA","Salem"
34.509071,-92.482828,"AR","Saline"
37.680285,-88.619902,"IL","Saline"
38.823673,-97.642113,"KS","Saline"
39.069352,-92.948668,"MO","Saline"
40.628937,-97.016925,"NE","Saline"
40.592045,-112.0786,"UT","Salt Lake"
33.88797,-81.679404,"SC","Saluda"
35.066726,-78.590479,"NC","Sampson"
31.418078,-94.182373,"TX","San Augustine"
36.828078,-121.3924,"CA","San Benito"
34.839964,-115.967051,"CA","San Bernardino"
32.74081,-116.976341,"CA","San Diego"
37.784827,-122.727802,"CA","San Francisco"
30.588554,-95.111278,"TX","San Jacinto"
37.672196,-121.298794,"CA","San Joaquin"
37.848391,-107.680381,"CO","San Juan"
36.711152,-107.974666,"NM","San Juan"
37.748946,-110.22691,"UT","San Juan"
48.610644,-122.921551,"WA","San Juan"
35.265573,-120.62122,"CA","San Luis Obispo"
37.516644,-122.29339,"CA","San Mateo"
37.929371,-108.846067,"CO","San Miguel"
35.456288,-104.679611,"NM","San Miguel"
27.912454,-97.188437,"TX","San Patricio"
30.965073,-98.710661,"TX","San Saba"
44.020961,-98.01144,"SD","Sanborn"
47.306957,-114.328588,"MT","Sanders"
35.337752,-106.392905,"NM","Sandoval"
41.278621,-83.244604,"OH","Sandusky"
39.849893,-89.387944,"IL","Sangamon"
43.35159,-82.670835,"MI","Sanilac"
39.192478,-111.719605,"UT","Sanpete"
34.405045,-119.520525,"CA","Santa Barbara"
37.238842,-121.885066,"CA","Santa Clara"
31.609653,-110.563551,"AZ","Santa Cruz"
37.05297,-121.949418,"CA","Santa Cruz"
35.264653,-106.083792,"NM","Santa Fe"
30.598564,-87.031496,"FL","Santa Rosa"
27.143931,-82.404959,"FL","Sarasota"
42.934416,-73.848971,"NY","Saratoga"
46.062144,-97.529438,"ND","Sargent"
41.132948,-95.903956,"NE","Sarpy"
43.364531,-89.66396,"WI","Sauk"
41.102696,-96.577634,"NE","Saunders"
45.837967,-91.291784,"WI","Sawyer"
42.859176,-73.902117,"NY","Schenectady"
30.912773,-100.676722,"TX","Schleicher"
32.209028,-84.277064,"GA","Schley"
42.592287,-74.438129,"NY","Schoharie"
45.915778,-86.473246,"MI","Schoolcraft"
40.20621,-90.652911,"IL","Schuyler"
40.47037,-92.535566,"MO","Schuyler"
42.375566,-76.732706,"NY","Schuyler"
40.708751,-76.282986,"PA","Schuylkill"
38.650439,-82.802128,"OH","Scioto"
40.453333,-92.1474,"MO","Scotland"
34.795061,-79.577405,"NC","Scotland"
34.882558,-94.079724,"AR","Scott"
41.57048,-90.529138,"IA","Scott"
39.551987,-90.386156,"IL","Scott"
38.748455,-85.750469,"IN","Scott"
38.482307,-100.906427,"KS","Scott"
38.239718,-84.574498,"KY","Scott"
44.588963,-93.369473,"MN","Scott"
37.025936,-89.538588,"MO","Scott"
32.399853,-89.505298,"MS","Scott"
36.387879,-84.616597,"TN","Scott"
36.711382,-82.833676,"VA","Scott"
41.80602,-103.75796,"NE","Scotts Bluff"
32.767634,-81.629062,"GA","Screven"
32.747707,-100.9153,"TX","Scurry"
35.916744,-92.681408,"AR","Searcy"
35.231245,-94.339412,"AR","Sebastian"
40.875606,-102.351994,"CO","Sedgwick"
37.779733,-97.636619,"KS","Sedgwick"
28.666625,-81.365039,"FL","Seminole"
30.918229,-84.867238,"GA","Seminole"
35.162228,-96.609139,"OK","Seminole"
42.822662,-76.80197,"NY","Seneca"
41.090712,-83.365404,"OH","Seneca"
35.386535,-85.376504,"TN","Sequatchie"
35.532577,-95.109916,"OK","Sequoyah"
33.837053,-94.120289,"AR","Sevier"
35.727782,-83.436982,"TN","Sevier"
38.959002,-111.904385,"UT","Sevier"
37.204223,-100.701401,"KS","Seward"
40.785436,-97.23499,"NE","Seward"
32.768222,-99.210207,"TX","Shackelford"
36.997849,-91.494175,"MO","Shannon"
43.352617,-102.5411,"SD","Shannon"
32.973917,-90.831601,"MS","Sharkey"
36.285559,-91.355691,"AR","Sharp"
40.675738,-122.456982,"CA","Shasta"
44.699153,-88.454312,"WI","Shawano"
38.916916,-95.839181,"KS","Shawnee"
43.658488,-87.973717,"WI","Sheboygan"
33.193415,-86.794377,"AL","Shelby"
41.684667,-95.325315,"IA","Shelby"
39.425509,-88.714896,"IL","Shelby"
39.566614,-85.91406,"IN","Shelby"
38.274456,-85.090374,"KY","Shelby"
39.779288,-92.069741,"MO","Shelby"
40.407239,-84.203271,"OH","Shelby"
35.169255,-89.990415,"TN","Shelby"
31.780781,-94.235334,"TX","Shelby"
38.983383,-78.403766,"VA","Shenandoah"
45.451864,-93.842187,"MN","Sherburne"
39.355013,-100.440513,"KS","Sheridan"
48.700718,-104.360729,"MT","Sheridan"
47.529679,-100.271687,"ND","Sheridan"
42.730616,-102.471549,"NE","Sheridan"
44.780378,-106.837563,"WY","Sheridan"
39.366545,-101.49405,"KS","Sherman"
41.249476,-98.79476,"NE","Sherman"
45.306543,-120.797313,"OR","Sherman"
36.340796,-102.073587,"TX","Sherman"
42.865732,-84.083097,"MI","Shiawassee"
47.501205,-115.644501,"ID","Shoshone"
44.597449,-94.105481,"MN","Sibley"
39.466324,-120.829633,"CA","Sierra"
33.160602,-107.266914,"NM","Sierra"
45.997895,-112.598765,"MT","Silver Bow"
36.740598,-86.583305,"KY","Simpson"
31.96499,-89.981393,"MS","Simpson"
43.03801,-95.970314,"IA","Sioux"
46.361639,-100.688991,"ND","Sioux"
42.631216,-103.782027,"NE","Sioux"
41.451129,-123.467024,"CA","Siskiyou"
48.499172,-122.607111,"WA","Skagit"
45.784205,-121.841736,"WA","Skamania"
46.454966,-103.485325,"ND","Slope"
39.766784,-98.919297,"KS","Smith"
31.852342,-89.50805,"MS","Smith"
36.276278,-85.95174,"TN","Smith"
32.288029,-95.200403,"TX","Smith"
36.869374,-81.399235,"VA","Smyth"
47.840068,-122.197238,"WA","Snohomish"
40.726469,-77.272828,"PA","Snyder"
34.230014,-107.374545,"NM","Socorro"
38.1012,-122.032061,"CA","Solano"
37.998308,-75.818797,"MD","Somerset"
45.28657,-70.054629,"ME","Somerset"
40.629101,-74.532449,"NJ","Somerset"
39.752401,-79.330768,"PA","Somerset"
32.210812,-97.792155,"TX","Somervell"
38.351416,-122.974134,"CA","Sonoma"
36.611614,-77.207263,"VA","Southampton"
33.278205,-84.288803,"GA","Spalding"
35.011309,-81.993403,"SC","Spartanburg"
38.149611,-86.946217,"IN","Spencer"
38.019718,-85.181188,"KY","Spencer"
45.046485,-98.397319,"SD","Spink"
47.643803,-117.59205,"WA","Spokane"
38.271969,-77.606772,"VA","Spotsylvania"
30.033264,-90.575432,"LA","St John The Baptist"
41.734912,-86.139868,"IN","St Joseph"
38.166197,-98.628964,"KS","Stafford"
38.417273,-77.460814,"VA","Stafford"
37.561889,-120.967976,"CA","Stanislaus"
44.343326,-100.635312,"SD","Stanley"
35.319817,-80.253448,"NC","Stanly"
37.562997,-101.707858,"KS","Stanton"
41.976143,-97.07791,"NE","Stanton"
41.176471,-89.657789,"IL","Stark"
46.805716,-102.756514,"ND","Stark"
40.820292,-81.335275,"OH","Stark"
41.25163,-86.735127,"IN","Starke"
26.421394,-98.848757,"TX","Starr"
38.157368,-79.065116,"VA","Staunton City"
45.36261,-94.309928,"MN","Stearns"
44.160283,-93.246471,"MN","Steele"
47.323726,-97.713371,"ND","Steele"
34.53512,-83.258748,"GA","Stephens"
34.48532,-97.852223,"OK","Stephens"
32.769037,-98.84154,"TX","Stephens"
42.376127,-89.636483,"IL","Stephenson"
31.882997,-101.030277,"TX","Sterling"
41.672567,-85.000474,"IN","Steuben"
42.535363,-77.628857,"NY","Steuben"
37.243161,-101.281684,"KS","Stevens"
45.585961,-96.000761,"MN","Stevens"
47.913372,-117.797447,"WA","Stevens"
32.07663,-84.849724,"GA","Stewart"
36.580898,-87.774854,"TN","Stewart"
45.515571,-109.455156,"MT","Stillwater"
37.001191,-90.033351,"MO","Stoddard"
36.446831,-80.220095,"NC","Stokes"
35.91896,-92.127207,"AR","Stone"
36.549301,-93.338838,"MO","Stone"
30.721036,-89.172285,"MS","Stone"
33.139647,-100.224966,"TX","Stonewall"
39.332488,-119.613509,"NV","Storey"
42.037879,-93.600254,"IA","Story"
43.285282,-70.930684,"NH","Strafford"
46.921005,-98.745485,"ND","Stutsman"
43.221022,-110.152755,"WY","Sublette"
42.370567,-71.026964,"MA","Suffolk"
40.922326,-72.637078,"NY","Suffolk"
36.874916,-76.553061,"VA","Suffolk City"
38.966806,-87.384354,"IN","Sullivan"
40.245907,-92.872023,"MO","Sullivan"
43.17229,-72.100689,"NH","Sullivan"
41.686944,-74.677156,"NY","Sullivan"
41.432901,-76.516887,"PA","Sullivan"
36.525039,-82.369895,"TN","Sullivan"
44.802621,-100.158903,"SD","Sully"
37.674782,-80.890043,"WV","Summers"
39.475323,-106.022472,"CO","Summit"
41.311288,-81.492511,"OH","Summit"
40.840518,-111.322754,"UT","Summit"
37.248959,-97.690887,"KS","Sumner"
36.477191,-86.460853,"TN","Sumner"
32.621168,-88.285932,"AL","Sumter"
28.676288,-82.149168,"FL","Sumter"
32.040432,-84.215282,"GA","Sumter"
34.025111,-80.478151,"SC","Sumter"
33.690173,-90.549626,"MS","Sunflower"
36.385903,-80.589507,"NC","Surry"
37.065785,-76.915537,"VA","Surry"
41.654319,-75.614463,"PA","Susquehanna"
38.555533,-75.186955,"DE","Sussex"
41.115723,-74.593439,"NJ","Sussex"
36.864325,-77.282567,"VA","Sussex"
38.837134,-121.551933,"CA","Sutter"
30.579386,-100.671422,"TX","Sutton"
30.101927,-82.908004,"FL","Suwannee"
35.409905,-83.479397,"NC","Swain"
45.834206,-109.950025,"MT","Sweet Grass"
42.239404,-107.558882,"WY","Sweetwater"
45.282008,-95.95757,"MN","Swift"
34.741789,-101.857175,"TX","Swisher"
38.864386,-85.074867,"IN","Switzerland"
32.701117,-84.494946,"GA","Talbot"
38.800714,-76.051486,"MD","Talbot"
33.577007,-82.858099,"GA","Taliaferro"
33.403969,-86.233878,"AL","Talladega"
33.929206,-90.188462,"MS","Tallahatchie"
32.930079,-85.805026,"AL","Tallapoosa"
41.95619,-92.712756,"IA","Tama"
36.722523,-92.914606,"MO","Taney"
30.549037,-90.464466,"LA","Tangipahoa"
36.803628,-105.585441,"NM","Taos"
32.771419,-97.291484,"TX","Tarrant"
34.686272,-90.106756,"MS","Tate"
32.10597,-82.03389,"GA","Tattnall"
29.931864,-83.55146,"FL","Taylor"
32.572668,-84.226075,"GA","Taylor"
40.687613,-94.690576,"IA","Taylor"
37.337416,-85.357952,"KY","Taylor"
32.289413,-99.810319,"TX","Taylor"
45.197791,-90.632113,"WI","Taylor"
39.345364,-80.04977,"WV","Taylor"
40.425189,-89.62064,"IL","Tazewell"
37.006018,-81.570038,"VA","Tazewell"
40.125399,-122.135411,"CA","Tehama"
32.047457,-82.9747,"GA","Telfair"
38.826084,-105.149874,"CO","Teller"
32.038254,-91.242511,"LA","Tensas"
29.543768,-90.607587,"LA","Terrebonne"
31.824017,-84.343163,"GA","Terrell"
30.218602,-102.106642,"TX","Terrell"
33.172013,-102.335299,"TX","Terry"
43.713752,-111.158402,"ID","Teton"
48.052324,-112.457343,"MT","Teton"
43.452793,-110.739266,"WY","Teton"
37.309426,-92.214372,"MO","Texas"
36.755,-101.077969,"OK","Texas"
40.244068,-97.386612,"NE","Thayer"
30.828644,-83.910971,"GA","Thomas"
39.40152,-100.973696,"KS","Thomas"
41.913806,-100.555805,"NE","Thomas"
33.158707,-99.145361,"TX","Throckmorton"
42.146597,-96.545297,"NE","Thurston"
46.984767,-122.869079,"WA","Thurston"
31.44172,-83.503715,"GA","Tift"
45.609399,-123.894297,"OR","Tillamook"
34.242236,-99.076314,"OK","Tillman"
42.049798,-76.181009,"NY","Tioga"
41.862339,-77.258974,"PA","Tioga"
34.667999,-88.99877,"MS","Tippah"
40.39905,-86.830286,"IN","Tippecanoe"
40.289836,-86.149423,"IN","Tipton"
35.454301,-89.809562,"TN","Tipton"
34.550663,-88.22674,"MS","Tishomingo"
33.22101,-94.984645,"TX","Titus"
36.929243,-87.219328,"KY","Todd"
